city,city_ascii,lat,lng,pop,country,iso2,iso3,province
Shashemene,Shashemene,7.200398986,38.59003699,100110.5,Ethiopia,ET,ETH,Addis Ababa
Anaco,Anaco,9.440003885,-64.4600037,100118,Venezuela,VE,VEN,Anzoátegui
Västerås,Vasteraas,59.63001528,16.54001339,100186.5,Sweden,SE,SWE,Västmanland
Murfreesboro,Murfreesboro,35.84596315,-86.39026717,100237,United States of America,US,USA,Tennessee
Sabha,Sabha,27.0332711,14.43332027,100249,Libya,LY,LBY,Sabha
Elkhart,Elkhart,41.68294537,-85.96879419,100295,United States of America,US,USA,Indiana
Jizan,Jizan,16.90655072,42.5565649,100397,Saudi Arabia,SA,SAU,Jizan
Tuscaloosa,Tuscaloosa,33.22511538,-87.54417607,100594.5,United States of America,US,USA,Alabama
Poughkeepsie,Poughkeepsie,41.70023114,-73.92141585,100670.5,United States of America,US,USA,New York
San Fernando de Apure,San Fernando de Apure,7.899994526,-67.46994918,100740,Venezuela,VE,VEN,Apure
Oum el Bouaghi,Oum el Bouaghi,35.84999715,7.149996522,100821,Algeria,DZ,DZA,Oum el Bouaghi
Mazyr,Mazyr,52.04595624,29.27215613,100936,Belarus,BY,BLR,Homyel'
Olympia,Olympia,47.03804486,-122.899434,100950,United States of America,US,USA,Washington
Grudziadz,Grudziadz,53.48039064,18.75000769,100964.5,Poland,PL,POL,Kuyavian-Pomeranian
Praia,Praia,14.91669802,-23.51668889,101111.5,Cape Verde,CV,CPV,
Tan An,Tan An,10.53373557,106.416698,101149.5,Vietnam,VN,VNM,Long An
Cherkessk,Cherkessk,44.29040895,42.06000606,101153,Russia,RU,RUS,Karachay-Cherkess
Kamina,Kamina,-8.730023988,25.00998734,101180,Congo (Kinshasa),CD,COD,Katanga
Santa Cruz,Santa Cruz,36.97194629,-122.0263904,101530.5,United States of America,US,USA,California
Tyler,Tyler,32.35108604,-95.30078272,101561.5,United States of America,US,USA,Texas
Barbacena,Barbacena,-21.22001097,-43.77000045,101628.5,Brazil,BR,BRA,Minas Gerais
Ibri,Ibri,23.22538983,56.51695308,101640,Oman,OM,OMN,Al Dhahira
Maribor,Maribor,46.54047833,15.65004187,101642,Slovenia,SI,SVN,Maribor
Bontang,Bontang,0.133259297,117.5000008,101691,Indonesia,ID,IDN,Kalimantan Timur
Sancti Spiritus,Sancti Spiritus,21.93014589,-79.44250004,101710.5,Cuba,CU,CUB,Sancti Spíritus
Drohobych,Drohobych,49.34436403,23.49938188,101837.5,Ukraine,UA,UKR,L'viv
Zlin,Zlin,49.2304175,17.65002315,101893.5,Czech Republic,CZ,CZE,Kraj Vysocina
Rock Island,Rock Island,41.49339622,-90.53461369,102055.5,United States of America,US,USA,Illinois
Esteli,Esteli,13.08998781,-86.35998478,102130.5,Nicaragua,NI,NIC,Estelí
Koutiala,Koutiala,12.39041811,-5.469986818,102140,Mali,ML,MLI,Sikasso
Billings,Billings,45.78830202,-108.5400004,102151.5,United States of America,US,USA,Montana
Valparai,Valparai,10.32041526,76.96996822,102330.5,India,IN,IND,Tamil Nadu
Birnin Kebbi,Birnin Kebbi,12.45041445,4.199939737,102340.5,Nigeria,NG,NGA,Kebbi
Hoa Binh,Hoa Binh,20.81370241,105.3383142,102381,Vietnam,VN,VNM,Hòa Bình
Houma,Houma,35.61998212,111.2099971,102400,China,CN,CHN,Shanxi
Rochester,Rochester,44.02205324,-92.46968937,102433,United States of America,US,USA,Minnesota
Pouso Alegre,Pouso Alegre,-22.22000161,-45.94002303,102517.5,Brazil,BR,BRA,Minas Gerais
Bage,Bage,-31.32001463,-54.10001591,102519,Brazil,BR,BRA,Rio Grande do Sul
Zabid,Zabid,14.19508832,43.31553666,102547,Yemen,YE,YEM,Al Hudaydah
Jau,Jau,-22.28960976,-48.57001754,102565.5,Brazil,BR,BRA,São Paulo
Hidalgo del Parral,Hidalgo del Parral,26.93335472,-105.6666358,102573,Mexico,MX,MEX,Chihuahua
Apucarana,Apucarana,-23.54999795,-51.4700214,102577,Brazil,BR,BRA,Paraná
Fresnillo,Fresnillo,23.17043194,-102.8599854,102629.5,Mexico,MX,MEX,Zacatecas
Khiwa,Khiwa,41.39112856,60.35573686,102659,Uzbekistan,UZ,UZB,Khorezm
Piatra-Neamt,Piatra-Neamt,46.94000405,26.38299657,102688,Romania,RO,ROU,Neamt
Salto,Salto,-31.39034625,-57.9686945,102756.5,Uruguay,UY,URY,Salto
Sassari,Sassari,40.73000612,8.57000891,102822.5,Italy,IT,ITA,Sardegna
Conselheiro Lafaiete,Conselheiro Lafaiete,-20.6700187,-43.78999923,102926,Brazil,BR,BRA,Minas Gerais
Burco,Burco,9.520386575,45.54000037,102931.5,Somaliland,-99,SOL,
Agadez,Agadez,16.99587343,7.98280961,103165.5,Niger,NE,NER,Agadez
Iringa,Iringa,-7.769617494,35.69000728,103290,Tanzania,TZ,TZA,Iringa
Sennar,Sennar,13.54995974,33.60000565,103308,Sudan,SD,SDN,Sennar
Vinh Long,Vinh Long,10.256004,105.9640026,103314,Vietnam,VN,VNM,Vinh Long
Darnah,Darnah,32.76481113,22.63913928,103378,Libya,LY,LBY,Al Qubbah
Biak,Biak,-1.161493715,136.048481,103610,Indonesia,ID,IDN,Papua
Karaman,Karaman,37.18154055,33.21501623,103619.5,Turkey,TR,TUR,Karaman
Lae,Lae,-6.732988262,146.9900354,103653.5,Papua New Guinea,PG,PNG,Morobe
Trang,Trang,7.563400084,99.60801794,103728.5,Thailand,TH,THA,Trang
Potchefstroom,Potchefstroom,-26.69957314,27.09998897,103741.5,South Africa,ZA,ZAF,North West
Jalingo,Jalingo,8.900372741,11.36001949,103773,Nigeria,NG,NGA,Taraba
Gera,Gera,50.87036908,12.07000199,103857,Germany,DE,DEU,Thüringen
Kitami,Kitami,43.8503583,143.8999914,103971.5,Japan,JP,JPN,Hokkaido
Gafsa,Gafsa,34.42044293,8.780021931,104017.5,Tunisia,TN,TUN,Gafsa
Adigrat,Adigrat,14.28043194,39.46998328,104021,Ethiopia,ET,ETH,Tigray
Al Qamishli,Al Qamishli,37.03002525,41.22997921,104107,Syria,SY,SYR,Hasaka (Al Haksa)
Rudny,Rudny,52.95269676,63.1300378,104235.5,Kazakhstan,KZ,KAZ,Qostanay
Huanghua,Hunanghua,38.37043439,117.330037,104243,China,CN,CHN,Hebei
National City,National City,32.67194501,-117.0980052,104291,United States of America,US,USA,California
Zhezqazghan,Zhezqazghan,47.77998924,67.77001298,104357,Kazakhstan,KZ,KAZ,Qaraghandy
Montego Bay,Montego Bay,18.46668805,-77.91667586,104437.5,Jamaica,JM,JAM,Saint James
Tongren,Tongren,27.68041506,109.1300207,104441.5,China,CN,CHN,Guizhou
Drobeta-Turnu Severin,Drobeta-Turnu Severin,44.64589113,22.6658927,104462,Romania,RO,ROU,Mehedinti
Yaynangyoung,Yaynangyoung,20.46145001,94.88096798,104507.5,Myanmar,MM,MMR,Magway
Nancha,Nancha,47.13635927,129.285948,104570.5,China,CN,CHN,Heilongjiang
Uroteppa,Uroteppa,39.92191591,69.00146236,104736,Tajikistan,TJ,TJK,Leninabad
Schenectady,Schenectady,42.81458173,-73.93996769,104767.5,United States of America,US,USA,New York
Al Hasakah,Al Hasakah,36.48328859,40.7500085,104819.5,Syria,SY,SYR,Hasaka (Al Haksa)
Hailun,Hailun,47.45042279,126.9300195,104848.5,China,CN,CHN,Heilongjiang
Macon,Macon,32.85038373,-83.63004806,104932.5,United States of America,US,USA,Georgia
Sanming,Sanming,26.2299868,117.5800476,104941.5,China,CN,CHN,Fujian
Nkongsamba,Nkongsamba,4.960406513,9.940002806,105069,Cameroon,CM,CMR,Littoral
Catanduva,Catanduva,-21.14001585,-48.97996668,105238,Brazil,BR,BRA,São Paulo
Escuintla,Escuintla,14.30040489,-90.77999923,105401.5,Guatemala,GT,GTM,Escuintla
Racine,Racine,42.72771364,-87.81183415,105458.5,United States of America,US,USA,Wisconsin
Assab,Assab,13.01001853,42.72999101,105496,Eritrea,ER,ERI,Debubawi Keyih Bahri
Sadah,Sadah,16.93977867,43.84976762,105542,Yemen,YE,YEM,Sa`dah
Taungoo,Taungoo,18.94828656,96.41792843,105590.5,Myanmar,MM,MMR,Bago
Douliou,Douliou,23.7075,120.5438889,105688,Taiwan,TW,TWN,Yunlin
Gandajika,Gandajika,-6.739602845,23.96002559,105769.5,Congo (Kinshasa),CD,COD,Kasaï-Oriental
Asheville,Asheville,35.60119773,-82.55414474,105775,United States of America,US,USA,North Carolina
Tumbes,Tumbes,-3.570028871,-80.45998316,105783,Peru,PE,PER,Tumbes
Raba,Raba,-8.449989401,118.7666418,106101,Indonesia,ID,IDN,Nusa Tenggara Barat
Greeley,Greeley,40.41919822,-104.739974,106142.5,United States of America,US,USA,Colorado
Toliara,Toliara,-23.35683144,43.68998409,106278,Madagascar,MG,MDG,Toliary
Punta Arenas,Punta Arenas,-53.16498615,-70.93999577,106296,Chile,CL,CHL,Magallanes y Antártica Chilena
Kyzyl,Kyzyl,51.70670046,94.38306555,106310.5,Russia,RU,RUS,Tuva
Trento,Trento,46.08042889,11.11998246,106377,Italy,IT,ITA,Trentino-Alto Adige
Malanje,Malanje,-9.540000388,16.34002559,106451,Angola,AO,AGO,Malanje
Matagalpa,Matagalpa,12.91707847,-85.91665267,106514.5,Nicaragua,NI,NIC,Matagalpa
Algeciras,Algeciras,36.12671215,-5.466530363,106687.5,Spain,ES,ESP,Andalucía
Goulimine,Goulimine,28.97997398,-10.07001611,106748,Morocco,MA,MAR,Guelmim - Es-Semara
Gibraltar,Gibraltar,36.13243495,-5.37807483,106813.5,Gibraltar,GI,GIB,Gibraltar
Bataysk,Bataysk,47.13682436,39.74485022,106844.5,Russia,RU,RUS,Rostov
Boulder,Boulder,40.03844627,-105.246093,106897.5,United States of America,US,USA,Colorado
Udine,Udine,46.07001609,13.2400081,107019.5,Italy,IT,ITA,Friuli-Venezia Giulia
Yakeshi,Yakeshi,49.28041445,120.7300362,107047,China,CN,CHN,Nei Mongol
Sergiyev Posad,Sergiyev Posad,56.33000999,38.17001094,107047.5,Russia,RU,RUS,Moskovsskaya
Golmud,Golmud,36.416626,94.88334509,107092,China,CN,CHN,Gansu
Garanhuns,Garanhuns,-8.890014222,-36.50003076,107115,Brazil,BR,BRA,Pernambuco
Kamyanets-Podilskyy,Kamyanets-Podilskyy,48.68430096,26.58089921,107329,Ukraine,UA,UKR,Khmel'nyts'kyy
Melilla,Melilla,35.30000165,-2.950011435,107384,Spain,ES,ESP,Melilla
Manzanillo,Manzanillo,20.34375694,-77.11664718,107433,Cuba,CU,CUB,Granma
Koszalin,Koszalin,54.2,16.1833333,107450,Poland,PL,POL,West Pomeranian
Beaumont,Beaumont,30.08626304,-94.10168278,107455.5,United States of America,US,USA,Texas
Rimnicu Vilcea,Rimnicu Vilcea,45.10999804,24.38299862,107558,Romania,RO,ROU,Vâlcea
Segou,Segou,13.43999229,-6.260016115,107752,Mali,ML,MLI,Ségou
Letpadan,Letpadan,17.78189781,95.74148393,107753.5,Myanmar,MM,MMR,Bago
Tarragona,Tarragona,41.12036989,1.249990599,107957.5,Spain,ES,ESP,Cataluña
Batticaloa,Batticaloa,7.717008279,81.70001542,107982,Sri Lanka,LK,LKA,Batticaloa
Bandundu,Bandundu,-3.309993063,17.37996212,107997.5,Congo (Kinshasa),CD,COD,Bandundu
Abilene,Abilene,32.4486253,-99.73278609,108008,United States of America,US,USA,Texas
Leninsk Kuznetsky,Leninsk Kuznetsky,54.66000856,86.16997514,108047.5,Russia,RU,RUS,Kemerovo
Cerro de Pasco,Cerro de Pasco,-10.69000771,-76.26998051,108071,Peru,PE,PER,Pasco
Curico,Curico,-34.97999795,-71.24002914,108074.5,Chile,CL,CHL,Maule
Nazareth,Nazareth,32.70398439,35.2955094,108129.5,Israel,IL,ISR,HaZafon
Bryan,Bryan,30.67418581,-96.36968388,108156.5,United States of America,US,USA,Texas
Umtata,Umtata,-31.57999876,28.79001501,108217.5,South Africa,ZA,ZAF,Eastern Cape
Mascara,Mascara,35.40040895,0.14003251,108230,Algeria,DZ,DZA,Mascara
Exeter,Exeter,50.70040529,-3.529950197,108242,United Kingdom,GB,GBR,Devon
Pueblo,Pueblo,38.2803882,-104.6300066,108244,United States of America,US,USA,Colorado
Tekirdag,Tekirdag,40.99086875,27.50998979,108266,Turkey,TR,TUR,Tekirdag
Fayetteville,Fayetteville,36.06297833,-94.15720911,108267.5,United States of America,US,USA,Arkansas
Laghouat,Laghouat,33.80998924,2.880020303,108279,Algeria,DZ,DZA,Laghouat
Kingston,Kingston,44.23371991,-76.48330082,108297.5,Canada,CA,CAN,Ontario
Male,Male,4.16670819,73.49994747,108310,Maldives,MV,MDV,
Vryheid,Vryheid,-27.76002521,30.7899963,108364.5,South Africa,ZA,ZAF,KwaZulu-Natal
Wenshan,Wenshan,23.3723576,104.2496984,108396,China,CN,CHN,Yunnan
Trincomalee,Trincomalee,8.568999036,81.23300155,108420,Sri Lanka,LK,LKA,Trincomalee
Phuket,Phuket,7.876533426,98.3815295,108595.5,Thailand,TH,THA,Phuket
Leeuwarden,Leeuwarden,53.25037884,5.783357298,108601,Netherlands,NL,NLD,Friesland
Karamay,Karamay,45.58994204,84.8599259,108769,China,CN,CHN,Xinjiang Uygur
Delicias,Delicias,28.19996991,-105.4999793,108876,Mexico,MX,MEX,Chihuahua
Worcester,Worcester,-33.64002806,19.43993974,109200,South Africa,ZA,ZAF,Western Cape
Tieli,Tieli,46.95037579,128.0500028,109228.5,China,CN,CHN,Heilongjiang
Edea,Edea,3.800477314,10.11999182,109506.5,Cameroon,CM,CMR,Littoral
Pemba,Pemba,-12.98304604,40.53234737,109690,Mozambique,MZ,MOZ,Cabo Delgado
Dali,Dali,34.79525209,109.937775,109696,China,CN,CHN,Shaanxi
Cienaga,Cienaga,11.01039899,-74.25000045,109741,Colombia,CO,COL,Magdalena
Shizuishan,Shizuishan,39.23327578,106.7690279,109824,China,CN,CHN,Ningxia Hui
Santa Cruz do Sul,Santa Cruz do Sul,-29.71003538,-52.44003972,109869,Brazil,BR,BRA,Rio Grande do Sul
Daugavpils,Daugavpils,55.87995994,26.50999914,109969.5,Latvia,LV,LVA,Daugavpils
Linqing,Linqing,36.85039797,115.6800085,110046,China,CN,CHN,Hebei
Bouira,Bouira,36.38047833,3.900009724,110144,Algeria,DZ,DZA,Bouira
Dong Hoi,Dong Hoi,17.48333722,106.6000459,110152.5,Vietnam,VN,VNM,Quảng Bình
Mzuzu,Mzuzu,-11.45998655,34.01998002,110201,Malawi,MW,MWI,Mzimba
Kelowna,Kelowna,49.89998903,-119.4833118,110207.5,Canada,CA,CAN,British Columbia
As Salt,As Salt,32.03919293,35.72721431,110439,Jordan,JO,JOR,Balqa
Pleven,Pleven,43.42376935,24.61337073,110445.5,Bulgaria,BG,BGR,Pleven
Kankan,Kankan,10.38999758,-9.310010825,110457.5,Guinea,GN,GIN,Kankan
Manzini,Manzini,-26.49500106,31.3880045,110537,Swaziland,SZ,SWZ,Manzini
Noyabrsk,Noyabrsk,63.1665436,75.61651078,110572,Russia,RU,RUS,Yamal-Nenets
Iguala,Iguala,18.37000144,-99.53998133,110641.5,Mexico,MX,MEX,Guerrero
Surt,Surt,31.2099929,16.59003617,110756.5,Libya,LY,LBY,Surt
Calabozo,Calabozo,8.930396748,-67.43997685,110907,Venezuela,VE,VEN,Guárico
Rio Largo,Rio Largo,-9.48000405,-35.83996769,110966,Brazil,BR,BRA,Alagoas
Nsukka,Nsukka,6.867034321,7.383362995,111017,Nigeria,NG,NGA,Enugu
Gagnoa,Gagnoa,6.150411396,-5.879987632,111188,Ivory Coast,CI,CIV,Fromager
Fasa,Fasa,28.97183494,53.67149369,111259.5,Iran,IR,IRN,Fars
Puno,Puno,-15.83294961,-70.03330693,111350,Peru,PE,PER,Callao
Magelang,Magelang,-7.469584128,110.1799825,111461,Indonesia,ID,IDN,Jawa Tengah
Magway,Magway,20.14454429,94.91957027,111463.5,Myanmar,MM,MMR,Magway
Iskandar,Iskandar,41.55073122,69.68074906,111634.5,Uzbekistan,UZ,UZB,Tashkent
Salavat,Salavat,53.37034568,55.92996049,111648,Russia,RU,RUS,Bashkortostan
Kandy,Kandy,7.279980691,80.67000077,111701,Sri Lanka,LK,LKA,Kandy
Turbat,Turbat,25.99178428,63.07179846,111742.5,Pakistan,PK,PAK,Baluchistan
Cartago,Cartago,9.86997764,-83.92997807,111770,Costa Rica,CR,CRI,Cartago
Zwolle,Zwolle,52.52400009,6.096996529,111805,Netherlands,NL,NLD,Overijssel
Kecskemet,Kecskemet,46.90004295,19.70002722,111871,Hungary,HU,HUN,Bács-Kiskun
Nakhon Sawan,Nakhon Sawan,15.70003522,100.0700052,111915,Thailand,TH,THA,Nakhon Sawan
Aalborg,Aalborg,57.03371381,9.916593382,111917.5,Denmark,DK,DNK,Nordjylland
Juba,Juba,4.829975198,31.58002559,111975,South Sudan,SS,SSD,Central Equatoria
Hamilton,Hamilton,-37.77000853,175.3000386,112145,New Zealand,NZ,NZL,Auckland
Bongor,Bongor,10.28594708,15.38716386,112229.5,Chad,TD,TCD,Mayo-Kebbi Est
Ciudad Valles,Ciudad Valles,21.97998781,-99.02001306,112234,Mexico,MX,MEX,San Luis Potosí
Satu Mare,Satu Mare,47.79199816,22.88500248,112490,Romania,RO,ROU,Satu Mare
Achinsk,Achinsk,56.26998781,90.49999508,112541.5,Russia,RU,RUS,Krasnoyarsk
Mojokerto,Mojokerto,-7.469584128,112.4299743,112557,Indonesia,ID,IDN,Jawa Timur
Nefteyugansk,Nefteyugansk,61.07765301,72.70268347,112632,Russia,RU,RUS,Khanty-Mansiy
Yei,Yei,4.090382099,30.68002885,112691,South Sudan,SS,SSD,Central Equatoria
Riohacha,Riohacha,11.5403408,-72.90997888,112808.5,Colombia,CO,COL,La Guajira
Kitale,Kitale,1.030465514,34.98994665,112809,Kenya,KE,KEN,Rift Valley
Maxixe,Maxixe,-23.86602274,35.38855095,112881.5,Mozambique,MZ,MOZ,Inhambane
Port-Gentil,Port-Gentil,-0.720021953,8.780021931,112999.5,Gabon,GA,GAB,Ogooué-Maritime
Karabuk,Karabuk,41.20000327,32.60001501,113022.5,Turkey,TR,TUR,Zinguldak
Ourense,Ourense,42.32996014,-7.869995363,113095,Spain,ES,ESP,Galicia
Botosani,Botosani,47.74841494,26.65965409,113359,Romania,RO,ROU,Botosani
Norman,Norman,35.22791302,-97.34414636,113525,United States of America,US,USA,Oklahoma
Sarnia,Sarnia,42.96663963,-82.3999681,113585,Canada,CA,CAN,Ontario
Bærum,Baerum,59.91348606,11.34723651,113659,Norway,NO,NOR,Akershus
Ayutthaya,Ayutthaya,14.35879925,100.5684244,113788.5,Thailand,TH,THA,Phra Nakhon Si Ayutthaya
Zielona Gora,Zielona Gora,51.95040651,15.50002519,113865.5,Poland,PL,POL,Lubusz
Zhijiang,Zhijiang,27.44094647,109.6780493,113907,China,CN,CHN,Hunan
Kuito,Kuito,-12.38003375,16.93998897,113955,Angola,AO,AGO,Bié
Ad Damazin,Ed Damazin,11.77040428,34.34998572,114030,Sudan,SD,SDN,Blue Nile
Siirt,Siirt,37.94400007,41.93299858,114034,Turkey,TR,TUR,Siirt
Lubango,Lubango,-14.91000853,13.49001868,114086.5,Angola,AO,AGO,Huíla
Edirne,Edirne,41.67043968,26.56999548,114424,Turkey,TR,TUR,Edirne
Sullana,Sullana,-4.889586569,-80.67999557,114496.5,Peru,PE,PER,Piura
Edinburg,Edinburg,26.30318646,-98.1599622,114573.5,United States of America,US,USA,Texas
Lhokseumawe,Lhokseumawe,5.191400166,97.14145015,114648,Indonesia,ID,IDN,Aceh
Larache,Larache,35.20042116,-6.160022218,114688,Morocco,MA,MAR,Tanger - Tétouan
Visalia,Visalia,36.32502952,-119.3160094,114699.5,United States of America,US,USA,California
Scranton,Scranton,41.40929283,-75.66267908,114701,United States of America,US,USA,Pennsylvania
Taonan,Taonan,45.33042299,122.7800402,114715,China,CN,CHN,Jilin
Zakho,Zakho,37.14454022,42.68720292,114957.5,Iraq,IQ,IRQ,Dihok
Myitkyina,Myitkyina,25.35962648,97.39275264,114997,Myanmar,MM,MMR,Kachin
New Bedford,New Bedford,41.6561253,-70.94469833,115082.5,United States of America,US,USA,Massachusetts
Son Tay,Son Tay,21.13817873,105.5050223,115091.5,Vietnam,VN,VNM,Hà Tây
Tuguegarao,Tuguegarao,17.61309674,121.7268746,115105,Philippines,PH,PHL,Cagayan
Nabeul,Nabeul,36.46034426,10.7300321,115149,Tunisia,TN,TUN,Nabeul
St. John’s,St. John's,47.58498822,-52.68100692,115325.5,Canada,CA,CAN,Newfoundland and Labrador
Girga,Girga,26.33036826,31.88000728,115475.5,Egypt,EG,EGY,Suhaj
Badajoz,Badajoz,38.8804291,-6.96997278,115638.5,Spain,ES,ESP,Extremadura
Idlib,Idlib,35.92970481,36.63165523,115785.5,Syria,SY,SYR,Idlib
Yelets,Yelets,52.58000633,38.50001664,115803.5,Russia,RU,RUS,Lipetsk
Sri Jawewardenepura Kotte,Sri Jawewardenepura Kotte,6.900003885,79.94999304,115826,Sri Lanka,LK,LKA,Colombo
Buizhou,Buizhou,37.37039207,118.0200207,115893,China,CN,CHN,Shandong
Gharyan,Gharyan,32.17037355,13.01996985,116014.5,Libya,LY,LBY,Mizdah
Navajoa,Navajoa,27.08189862,-109.4546216,116093,Mexico,MX,MEX,Sonora
Xilinhot,Xilinhot,43.94433189,116.0443274,116156.5,China,CN,CHN,Nei Mongol
Wilmington,Wilmington,39.74626772,-75.54689803,116205.5,United States of America,US,USA,Delaware
Abeche,Abeche,13.83999371,20.82998409,116252.5,Chad,TD,TCD,Ouaddaï
Boke,Boke,10.93998985,-14.29999048,116270,Guinea,GN,GIN,Boke
San Nicolas,San Nicolas,-33.33002114,-60.24000289,117123.5,Argentina,AR,ARG,Ciudad de Buenos Aires
Langsa,Langsa,4.673576476,97.96636104,117256,Indonesia,ID,IDN,Aceh
Copiapo,Copiapo,-27.35999795,-70.33998071,117316.5,Chile,CL,CHL,Atacama
Cape Coral,Cape Coral,26.60290977,-81.97968368,117387.5,United States of America,US,USA,Florida
Setubal,Setubal,38.52995953,-8.900010011,117542,Portugal,PT,PRT,Lisboa
Niagara Falls,Niagara Falls,43.09482302,-79.0369434,117567,United States of America,US,USA,New York
Bintulu,Bintulu,3.16640749,113.0359838,117643.5,Malaysia,MY,MYS,Sarawak
Semnan,Semnan,35.5547923,53.37430253,117888,Iran,IR,IRN,Semnan
Nakhon Pathom,Nakhon Pathom,13.81799707,100.0639986,117927,Thailand,TH,THA,Nakhon Pathom
Almetyevsk,Almetyevsk,54.90040733,52.31994828,117971,Russia,RU,RUS,Tatarstan
Lysychansk,Lysychansk,48.92041058,38.42735958,118010.5,Ukraine,UA,UKR,Luhans'k
Trois-Rivières,Trois Rivieres,46.34997316,-72.54994918,118051,Canada,CA,CAN,Québec
Carpina,Carpina,-7.840000795,-35.26000309,118134,Brazil,BR,BRA,Pernambuco
Qomsheh,Qomsheh,32.01149436,51.85971798,118301,Iran,IR,IRN,Esfahan
Shuangcheng,Shuangcheng,45.35034426,126.2799816,118525,China,CN,CHN,Heilongjiang
Amiens,Amiens,49.90037661,2.300004027,118908.5,France,FR,FRA,Picardie
Nikopol,Nikopol,47.56659141,34.40620967,119110,Ukraine,UA,UKR,Dnipropetrovs'k
Sudbury,Sudbury,46.49998985,-80.96664474,119182,Canada,CA,CAN,Ontario
Carupano,Carupano,10.67000633,-63.23000126,119187.5,Venezuela,VE,VEN,Sucre
Zarzis,Zarzis,33.51039512,11.09998368,119238.5,Tunisia,TN,TUN,Médenine
Huelva,Huelva,37.25037355,-6.929949383,119732,Spain,ES,ESP,Andalucía
Olmaliq,Olmaliq,40.85043805,69.59501786,119768,Uzbekistan,UZ,UZB,Tashkent
Port Blair,Port Blair,11.66702557,92.73598262,119806,India,IN,IND,Andaman and Nicobar
Puerto Plata,Puerto Plata,19.7902171,-70.69024747,119897,Dominican Republic,DO,DOM,Puerto Plata
Sogamoso,Sogamoso,5.719998392,-72.94000289,120071.5,Colombia,CO,COL,Boyacá
Shendi,Shendi,16.68049217,33.42001664,120089.5,Sudan,SD,SDN,River Nile
Larissa,Larissa,39.63040916,22.42001623,120122.5,Greece,GR,GRC,Thessalia
Killeen,Killeen,31.11728538,-97.72748214,120464,United States of America,US,USA,Texas
Miaoli,Miaoli,24.57,120.82,120494,Taiwan,TW,TWN,Miaoli
Mudon,Mudon,16.26183555,97.72146643,120711.5,Myanmar,MM,MMR,Mon
Ft. Myers,Ft. Myers,26.64029767,-81.86049199,120810.5,United States of America,US,USA,Florida
Nusaybin,Nusaybin,37.07498374,41.21835201,120822.5,Turkey,TR,TUR,Mardin
Pinsk,Pinsk,52.12786338,26.09405554,120838.5,Belarus,BY,BLR,Brest
Yala,Yala,6.550490335,101.2850732,120849,Thailand,TH,THA,Yala
Itapetininga,Itapetininga,-23.58999551,-48.03999821,120889,Brazil,BR,BRA,São Paulo
Songea,Songea,-10.68003416,35.65000972,120923,Tanzania,TZ,TZA,Ruvuma
Dimitrovgrad,Dimitrovgrad,54.25042116,49.56001339,121213.5,Russia,RU,RUS,Ul'yanovsk
Samalut,Samalut,28.30042889,30.71000118,121281,Egypt,EG,EGY,Al Minya
Erzincan,Erzincan,39.75264976,39.49277258,121717,Turkey,TR,TUR,Erzincan
Carora,Carora,10.18998395,-70.07999658,121749.5,Venezuela,VE,VEN,Lara
Ferrara,Ferrara,44.85042645,11.60992672,121754,Italy,IT,ITA,Emilia-Romagna
Girardot,Girardot,4.310006937,-74.80999211,121830.5,Colombia,CO,COL,Cundinamarca
Shkoder,Shkoder,42.06845156,19.51884965,122006,Albania,AL,ALB,Shkodër
Lazaro Cardenas,Lazaro Cardenas,17.95870872,-102.199974,122044,Mexico,MX,MEX,Michoacán
Loja,Loja,-3.990003236,-79.21000777,122082,Ecuador,EC,ECU,Loja
Clarksville,Clarksville,36.5300816,-87.35943282,122115,United States of America,US,USA,Tennessee
Neftekamsk,Neftekamsk,56.08351341,54.26308549,122170,Russia,RU,RUS,Bashkortostan
Tete,Tete,-16.17003497,33.58000688,122183,Mozambique,MZ,MOZ,Tete
Dar'a,Dar'a,32.62500014,36.10500351,122225,Syria,SY,SYR,Dar`a
Ash Shatrah,Ash Shatrah,31.41752545,46.17722245,122340.5,Iraq,IQ,IRQ,Dhi-Qar
Ciego de Avila,Ciego de Avila,21.83999636,-78.76194727,122343.5,Cuba,CU,CUB,Ciego de Ávila
Maastricht,Maastricht,50.85299707,5.677002477,122378,Netherlands,NL,NLD,Limburg
Panevežys,Panevezys,55.74002016,24.37002641,122400,Lithuania,LT,LTU,Panevezio
Volgodonsk,Volgodonsk,47.50997988,42.15994828,122434.5,Russia,RU,RUS,Rostov
Baramula,Baramula,34.20043052,74.35002478,122631,India,IN,IND,Jammu and Kashmir
Les Cayes,Les Cayes,18.20037355,-73.74997929,122728.5,Haiti,HT,HTI,Sud
Pati,Pati,-6.741514873,111.034659,122785,Indonesia,ID,IDN,Jawa Tengah
Yilan,Yilan,24.75,121.75,122915.5,Taiwan,TW,TWN,Yilan
Lecce,Lecce,40.36039044,18.14999263,122942.5,Italy,IT,ITA,Apulia
Szekesfehervar,Szekesfehervar,47.19467613,18.40806474,122959.5,Hungary,HU,HUN,Fejér
Siracusa,Siracusa,37.0703587,15.28996049,123110,Italy,IT,ITA,Sicily
Cartago,Cartago,4.749980081,-75.91002832,123170,Colombia,CO,COL,Valle del Cauca
My Tho,My Tho,10.35041343,106.3500354,123226.5,Vietnam,VN,VNM,Tiền Giang
Indramayu,Indramayu,-6.335648174,108.3190108,123263,Indonesia,ID,IDN,Jawa Barat
Comodoro Rivadavia,Comodoro Rivadavia,-45.87003091,-67.49999903,123291,Argentina,AR,ARG,Chubut
Alagoinhas,Alagoinhas,-12.13999673,-38.42999048,123379,Brazil,BR,BRA,Bahia
Guarapuava,Guarapuava,-25.38001544,-51.48002079,123381.5,Brazil,BR,BRA,Paraná
Yulin,Yulin,38.28330792,109.7332914,123415,China,CN,CHN,Shaanxi
Guelma,Guelma,36.46600213,7.427997486,123590,Algeria,DZ,DZA,Guelma
Higuey,Higuey,18.61599603,-68.70799749,123787,Dominican Republic,DO,DOM,La Altagracia
Zuwarah,Zuwarah,32.93440961,12.07914872,123848,Libya,LY,LBY,An Nuqat al Khams
Logrono,Logrono,42.47036501,-2.429991497,123918.5,Spain,ES,ESP,La Rioja
Andong,Andong,36.56591921,128.7250004,123920.5,South Korea,KR,KOR,Daegu
Pindamonhangaba,Pindamonhangaba,-22.91995888,-45.47002588,123985,Brazil,BR,BRA,São Paulo
Laiwu,Laiwu,36.2004118,117.6600427,124108,China,CN,CHN,Shandong
Besancon,Besancon,47.22999697,6.03000891,124193,France,FR,FRA,Franche-Comté
Gilgit,Gilgit,35.91709576,74.30000199,124196.5,Pakistan,PK,PAK,Northern Areas
Middelburg,Middelburg,-25.75963051,29.47002519,124248,South Africa,ZA,ZAF,Mpumalanga
Ravenna,Ravenna,44.42037518,12.22001868,124302.5,Italy,IT,ITA,Emilia-Romagna
Teziutlan,Teziutlan,19.82042971,-97.35998519,124307.5,Mexico,MX,MEX,Puebla
Elblag,Elblag,54.18995974,19.40268103,124332,Poland,PL,POL,Warmian-Masurian
Marv Dasht,Marv Dasht,29.80144838,52.82146806,124429,Iran,IR,IRN,Fars
Takaoka,Takaoka,36.67002138,136.9999991,124437,Japan,JP,JPN,Toyama
Ekibastuz,Ekibastuz,51.72998069,75.31993974,124669,Kazakhstan,KZ,KAZ,Pavlodar
Nueva San Salvador,Nueva San Salvador,13.67399699,-89.28999848,124694,El Salvador,SV,SLV,La Libertad
Pyay,Pyay,18.81645998,95.21143876,124833.5,Myanmar,MM,MMR,Bago
M'sila,M'sila,35.7000031,4.545000584,125000,Algeria,DZ,DZA,M'Sila
Shahrud,Shahrud,36.42287884,54.96288773,125304,Iran,IR,IRN,Semnan
Castanhal,Castanhal,-1.28959959,-47.93003076,125314.5,Brazil,BR,BRA,Pará
Springfield,Springfield,39.82000999,-89.65001652,125345,United States of America,US,USA,Illinois
Pakokku,Pakokku,21.33204287,95.08664018,125355.5,Myanmar,MM,MMR,Magway
Ghardaia,Ghardaia,32.48999229,3.669997923,125480,Algeria,DZ,DZA,Ghardaïa
Pocos de Caldas,Pocos de Caldas,-21.78002846,-46.56998458,125498.5,Brazil,BR,BRA,Minas Gerais
Sorong,Sorong,-0.855414206,131.2849991,125535,Indonesia,ID,IDN,Irian Jaya Barat
Parnaiba,Parnaiba,-2.910017478,-41.76996749,125699,Brazil,BR,BRA,Piauí
Gonaives,Gonaives,19.45042645,-72.68324854,125819.5,Haiti,HT,HTI,L'Artibonite
Hajjah,Hajjah,15.69174115,43.60213415,125918,Yemen,YE,YEM,Hajjah
Muroran,Muroran,42.34995892,140.9800146,125936.5,Japan,JP,JPN,Hokkaido
Arzamas,Arzamas,55.39998924,43.80000321,126038,Russia,RU,RUS,Nizhegorod
Tengchong,Tengchong,25.03331565,98.46658891,126058,China,CN,CHN,Yunnan
Macheng,Macheng,31.17999473,115.0300223,126366,China,CN,CHN,Hubei
Tay Ninh,Tay Ninh,11.32299911,106.1469997,126370,Vietnam,VN,VNM,Tây Ninh
Braganca Paulista,Braganca Paulista,-22.95003457,-46.5499858,126386,Brazil,BR,BRA,São Paulo
Koforidua,Koforidua,6.090415058,-0.260020591,126459.5,Ghana,GH,GHA,Eastern
Urgentch,Urgentch,41.5599813,60.64000891,126476.5,Uzbekistan,UZ,UZB,Khorezm
Kashmar,Kashmar,35.18143007,58.45146033,126643,Iran,IR,IRN,Razavi Khorasan
Kokshetau,Kokshetau,53.29998822,69.41998979,126658.5,Kazakhstan,KZ,KAZ,Aqmola
Topeka,Topeka,39.05000531,-95.66998499,126830.5,United States of America,US,USA,Kansas
Hathras,Hathras,27.59998069,78.05000565,126882,India,IN,IND,Uttar Pradesh
Wilmington,Wilmington,34.22551943,-77.94502039,126992,United States of America,US,USA,North Carolina
Musoma,Musoma,-1.489587383,33.79999345,127137.5,Tanzania,TZ,TZA,Mara
Pervouralsk,Pervouralsk,56.91002626,59.9550378,127236,Russia,RU,RUS,Sverdlovsk
Alexandria,Alexandria,38.82043276,-77.09998153,127273,United States of America,US,USA,Virginia
Alipur Duar,Alipur Duar,26.48374392,89.56666703,127342,India,IN,IND,West Bengal
Lira,Lira,2.260390441,32.89002315,127384,Uganda,UG,UGA,Lira
Entebbe,Entebbe,0.060395527,32.46002356,127414,Uganda,UG,UGA,Wakiso
Al Marj,Al Marj,32.50045677,20.82998409,127427.5,Libya,LY,LBY,Al Hizam Al Akhdar
Fargo,Fargo,46.8772278,-96.7894257,127472.5,United States of America,US,USA,North Dakota
Nema,Nema,16.61705935,-7.250007366,127500,Mauritania,MR,MRT,Hodh ech Chargui
Bizerte,Bizerte,37.29042279,9.854995075,127555.5,Tunisia,TN,TUN,Bizerte
Albacete,Albacete,39.00034426,-1.869999839,127597,Spain,ES,ESP,Castilla-La Mancha
Bremerhaven,Bremerhaven,53.55043805,8.579982461,127598.5,Germany,DE,DEU,Bremen
Barysaw,Barysaw,54.22600405,28.49215206,127694.5,Belarus,BY,BLR,Minsk
Ibarra,Ibarra,0.360377216,-78.12999618,127703.5,Ecuador,EC,ECU,Imbabura
Divo,Divo,5.839002037,-5.360003483,127867,Ivory Coast,CI,CIV,Sud-Bandama
Bumba,Bumba,2.189981302,22.45996212,128029.5,Congo (Kinshasa),CD,COD,Équateur
Xai-Xai,Xai-Xai,-25.03998452,33.64000321,128085.5,Mozambique,MZ,MOZ,Gaza
Namibe,Namibe,-15.19004311,12.16002234,128130.5,Angola,AO,AGO,Namibe
Jima,Jima,7.679982116,36.83004106,128306,Ethiopia,ET,ETH,Addis Ababa
Stara Zagora,Stara Zagora,42.42313275,25.6227148,128315.5,Bulgaria,BG,BGR,Stara Zagora
Sakakah,Sakakah,29.99999706,40.13330454,128332,Saudi Arabia,SA,SAU,Al Jawf
Cambridge,Cambridge,52.20039125,0.116623086,128488,United Kingdom,GB,GBR,Cambridgeshire
Play Ku,Play Ku,13.98329246,108.0000122,128562.5,Vietnam,VN,VNM,Gia Lai
Zonguldak,Zonguldak,41.43037681,31.78001339,128573.5,Turkey,TR,TUR,Zinguldak
Quchan,Quchan,37.11182904,58.50148311,128641.5,Iran,IR,IRN,Razavi Khorasan
Perpignan,Perpignan,42.69998924,2.899967406,128663,France,FR,FRA,Languedoc-Roussillon
Treviso,Treviso,45.67001467,12.24001745,128726.5,Italy,IT,ITA,Veneto
Kalamazoo,Kalamazoo,42.29215883,-85.58718958,128759.5,United States of America,US,USA,Michigan
York,York,39.96292116,-76.72804041,128798.5,United States of America,US,USA,Pennsylvania
Jaragua do Sul,Jaragua do Sul,-26.47999998,-49.09998519,128803.5,Brazil,BR,BRA,Santa Catarina
Baydhabo,Baydhabo,3.119976216,43.64998653,128830,Somalia,SO,SOM,Bay
Rashid,Rashid,31.46039105,30.39002071,128970.5,Egypt,EG,EGY,Kafr ash Shaykh
Murom,Murom,55.57041811,42.04000728,129109,Russia,RU,RUS,Vladimir
Shar e Kord,Shar e Kord,32.32099805,50.85399659,129153,Iran,IR,IRN,Chahar Mahall and Bakhtiari
Townsville,Townsville,-19.24995034,146.7699971,129212,Australia,AU,AUS,Queensland
Opole,Opole,50.68497988,17.93134965,129544,Poland,PL,POL,Opole
Tokat,Tokat,40.30599617,36.56300452,129702,Turkey,TR,TUR,Tokat
Suhar,Suhar,24.36197335,56.73441896,129811.5,Oman,OM,OMN,Al Batnah
Ghazni,Ghazni,33.56331179,68.41782873,129892.5,Afghanistan,AF,AFG,Ghazni
Ormac,Ormac,11.0642975,124.6075256,129964.5,Philippines,PH,PHL,Leyte
Masaya,Masaya,11.96900098,-86.09499852,130113,Nicaragua,NI,NIC,Masaya
Orekhovo-Zuevo,Orekhovo-Zuevo,55.82001528,38.97998734,130123.5,Russia,RU,RUS,Moskovsskaya
Orsha,Orsha,54.51531455,30.42154333,130276.5,Belarus,BY,BLR,Vitsyebsk
Kolomna,Kolomna,55.07998293,38.78496049,130324.5,Russia,RU,RUS,Moskovsskaya
Uppsala,Uppsala,59.86005292,17.63999792,130425.5,Sweden,SE,SWE,Uppsala
Ninh Binh,Ninh Binh,20.25430503,105.9750195,130517,Vietnam,VN,VNM,Ninh Bình
Abohar,Abohar,30.12042116,74.29002844,130603,India,IN,IND,Punjab
Independence,Independence,39.09111391,-94.41528121,130695,United States of America,US,USA,Missouri
Gottingen,Gottingen,51.52043276,9.920004027,130784,Germany,DE,DEU,Niedersachsen
Ocumare del Tuy,Ocumare del Tuy,10.11998822,-66.77999129,130824,Venezuela,VE,VEN,Miranda
Buzau,Buzau,45.15650596,26.80651851,130826,Romania,RO,ROU,Buzau
Pilibhit,Pilibhit,28.63999473,79.81000159,131008,India,IN,IND,Uttar Pradesh
Kumba,Kumba,4.640374368,9.439981647,131122,Cameroon,CM,CMR,Sud-Ouest
Tra Vinh,Tra Vinh,9.934002087,106.3340017,131360,Vietnam,VN,VNM,Trà Vinh
Jequie,Jequie,-13.85002155,-40.07999312,131524.5,Brazil,BR,BRA,Bahia
Brugge,Brugge,51.22037355,3.230024779,131589,Belgium,BE,BEL,Brugge
Suva,Suva,-18.13301593,178.4417073,131835,Fiji,FJ,FJI,Central
Serpukhov,Serpukhov,54.93037966,37.43000443,131871,Russia,RU,RUS,Moskovsskaya
Guanare,Guanare,9.049976012,-69.75001673,131964,Venezuela,VE,VEN,Portuguesa
Siauliai,Siauliai,55.93863853,23.32502559,132057.5,Lithuania,LT,LTU,Šiauliai
Novokuybishevsk,Novokuybishevsk,53.11999921,49.91993974,132067,Russia,RU,RUS,Samara
Cairns,Cairns,-16.88783986,145.7633309,132107,Australia,AU,AUS,Queensland
Qairouan,Qairouan,35.68039187,10.09999304,132158,Tunisia,TN,TUN,Kairouan
Gyor,Gyor,47.70035585,17.63002437,132173,Hungary,HU,HUN,Gyor-Moson-Sopron
Rivera,Rivera,-30.89957518,-55.56000431,132232.5,Uruguay,UY,URY,Rivera
Durres,Durres,41.3177997,19.44820797,132233,Albania,AL,ALB,Durrës
Kadugli,Kadugli,11.00995974,29.70003699,132298.5,Sudan,SD,SDN,South Kordufan
Kislovodsk,Kislovodsk,43.90996706,42.72001745,132337,Russia,RU,RUS,Stavropol'
Blitar,Blitar,-8.069599183,112.1499914,132416,Indonesia,ID,IDN,Jawa Timur
Masjed Soleyman,Masjed Soleyman,31.97999758,49.2999259,132586.5,Iran,IR,IRN,Khuzestan
Luanshya,Luanshya,-13.13332111,28.40001298,132679,Zambia,ZM,ZMB,Copperbelt
Oulu,Oulu,64.99999758,25.47001094,132685,Finland,FI,FIN,Northern Ostrobothnia
Chinandega,Chinandega,12.63037762,-87.13004114,132705,Nicaragua,NI,NIC,Chinandega
Concordia,Concordia,-31.38957111,-58.02998275,132760.5,Argentina,AR,ARG,Entre Ríos
La Vega,La Vega,19.2165906,-70.51658492,132811.5,Dominican Republic,DO,DOM,La Vega
San Juan del Rio,San Juan del Rio,20.37998212,-100.0000308,132866,Mexico,MX,MEX,Querétaro
Bose,Bose,23.8997156,106.6133268,132942.5,China,CN,CHN,Guangxi
Elbasan,Elbasan,41.12150677,20.08382808,132956.5,Albania,AL,ALB,Elbasan
Fort Pierce,Fort Pierce,27.44678591,-80.3258053,132984,United States of America,US,USA,Florida
Macae,Macae,-22.37999184,-41.78999211,133083,Brazil,BR,BRA,Rio de Janeiro
Awasa,Awasa,7.059996077,38.47699862,133097,Ethiopia,ET,ETH,"Southern Nations, Nationalities and Peoples"
Birganj,Birganj,27.00040489,84.86659216,133238,Nepal,NP,NPL,Narayani
Vallejo,Vallejo,38.11194887,-122.258052,133367.5,United States of America,US,USA,California
Yunxian,Yunxian,32.80816408,110.8136389,133558,China,CN,CHN,Hubei
Phitsanulok,Phitsanulok,16.8283126,100.2728869,133722,Thailand,TH,THA,Phitsanulok
Mostar,Mostar,43.35049217,17.82003861,133792.5,Bosnia and Herzegovina,BA,BIH,Herzegovina-Neretva
Innsbruck,Innsbruck,47.28040733,11.4099906,133840.5,Austria,AT,AUT,Tirol
Bratsk,Bratsk,56.15699729,101.6150272,133905,Russia,RU,RUS,Irkutsk
Kenema,Kenema,7.880409158,-11.18997359,133918.5,Sierra Leone,SL,SLE,Eastern
Kerch,Kerch,45.36850852,36.4880981,133972,Ukraine,UA,UKR,Crimea
Ngaoundere,Ngaoundere,7.320365823,13.57998734,134322.5,Cameroon,CM,CMR,Adamaoua
Calama,Calama,-22.45001341,-68.91998987,134336.5,Chile,CL,CHL,Antofagasta
Nantou,Nantou,23.91666667,120.6833333,134349,Taiwan,TW,TWN,Nantou
Uzhgorod,Uzhgorod,48.62998903,22.25000077,134355,Ukraine,UA,UKR,Transcarpathia
Nevinnomyssk,Nevinnomyssk,44.62005292,41.95003861,134362.5,Russia,RU,RUS,Stavropol'
Esmeraldas,Esmeraldas,0.930419941,-79.6699797,134365.5,Ecuador,EC,ECU,Esmeraldas
Iraklio,Iraklio,35.32501304,25.13049678,134404,Greece,GR,GRC,Kriti
Bordj Bou Arreridj,Bordj Bou Arreridj,36.05900401,4.629996466,134500,Algeria,DZ,DZA,Bordj Bou Arréridj
s-Hertogenbosch,s-Hertogenbosch,51.68333714,5.316660485,134520,Netherlands,NL,NLD,Noord-Brabant
Sherbrooke,Sherbrooke,45.40000531,-71.89998885,134549.5,Canada,CA,CAN,Québec
Baia Mare,Baia Mare,47.65945396,23.57906693,134630,Romania,RO,ROU,Maramures
Caxias,Caxias,-4.833000876,-43.35002608,134640,Brazil,BR,BRA,Maranhão
Saida,Saida,34.84039146,0.14003251,134855,Algeria,DZ,DZA,Saïda
Souk Ahras,Souk Ahras,36.29038047,7.949995075,134947,Algeria,DZ,DZA,Souk Ahras
Leon,Leon,42.57997072,-5.570006553,135014,Spain,ES,ESP,Castilla y León
Santa Barbara,Santa Barbara,34.43498985,-119.7199899,135021,United States of America,US,USA,California
Balti,Balti,47.75908612,27.90531449,135022.5,Moldova,MD,MDA,Balti
Paranagua,Paranagua,-25.52787556,-48.53445345,135071,Brazil,BR,BRA,Paraná
Zalantun,Zalantun,48.00000165,122.7199922,135128,China,CN,CHN,Nei Mongol
Lafayette,Lafayette,30.19997703,-92.01994938,135205.5,United States of America,US,USA,Louisiana
Matanzas,Matanzas,23.04152508,-81.577486,135303,Cuba,CU,CUB,Matanzas
Los Angeles,Los Angeles,-37.46000161,-72.35998661,135334.5,Chile,CL,CHL,Bío-Bío
Jiayuguan,Jiayuguan,39.82000999,98.29998409,135337.5,China,CN,CHN,Gansu
Kolar,Kolar,13.13370607,78.13335974,135533,India,IN,IND,Karnataka
Phan Rang,Phan Rang,11.56703168,108.9833113,135646.5,Vietnam,VN,VNM,Ninh Thuận
Melitopol,Melitopol,46.83782452,35.37746822,135850,Ukraine,UA,UKR,Zaporizhzhya
Lishui,Lishui,28.45041974,119.9000093,135861.5,China,CN,CHN,Zhejiang
Sarh,Sarh,9.149969909,18.39002966,135862,Chad,TD,TCD,Mandoul
Bata,Bata,1.870000833,9.769987344,135943.5,Equatorial Guinea,GQ,GNQ,Litoral
Ordu,Ordu,41.00042889,37.8699259,135952.5,Turkey,TR,TUR,Ordu
Rio Cuarto,Rio Cuarto,-33.13003335,-64.34998458,135959.5,Argentina,AR,ARG,Córdoba
Nizhenvartovsk,Nizhenvartovsk,60.93497438,76.58001786,136385,Russia,RU,RUS,Khanty-Mansiy
Brikama,Brikama,13.28036379,-16.65994979,136418,The Gambia,GM,GMB,Banjul
Appleton,Appleton,44.26867902,-88.40050623,136888.5,United States of America,US,USA,Wisconsin
Stavanger,Stavanger,58.97000389,5.680004434,136999,Norway,NO,NOR,Rogaland
Mufulira,Mufulira,-12.54999754,28.25996985,137062,Zambia,ZM,ZMB,Copperbelt
Tiraspol,Tiraspol,46.85309491,29.63998897,137097,Moldova,MD,MDA,Bender
Piedras Negras,Piedras Negras,28.70763918,-100.5316521,137295,Mexico,MX,MEX,Coahuila
Pec,Pec,43.88973574,20.33011796,137332.5,Serbia,RS,SRB,Moravicki
Livingstone,Livingstone,-17.86000934,25.86001298,137341.5,Zambia,ZM,ZMB,Southern
Mendefera,Adi Ugri,14.88597638,38.81632808,137585.5,Eritrea,ER,ERI,Maekel
Pabna,Pabna,24.00038129,89.24999385,137888,Bangladesh,BD,BGD,Rajshahi
La Ceiba,La Ceiba,15.7631063,-86.79698653,138072,Honduras,HN,HND,Atlántida
Tiruvannamalai,Tiruvannamalai,12.26037437,79.09996741,138243,India,IN,IND,Tamil Nadu
Atbara,Atbara,17.70999005,33.97998246,138271,Sudan,SD,SDN,River Nile
Ras al Khaymah,Ras al Khaymah,25.79153811,55.94277624,138399,United Arab Emirates,AE,ARE,Ras Al Khaymah
Chincha Alta,Chincha Alta,-13.41960854,-76.13998845,138608,Peru,PE,PER,Ica
San Francisco de Macoris,San Francisco de Macoris,19.29999636,-70.25001205,138650.5,Dominican Republic,DO,DOM,Duarte
Batumi,Batumi,41.6000047,41.63000647,138674,Georgia,GE,GEO,Ajaria
Cajamarca,Cajamarca,-7.150017071,-78.53002344,138832.5,Peru,PE,PER,Cajamarca
Denton,Denton,33.21576194,-97.12883651,138952.5,United States of America,US,USA,Texas
Erie,Erie,42.12992067,-80.08499313,138991.5,United States of America,US,USA,Pennsylvania
Ipswich,Ipswich,52.07034751,1.169995482,139012,United Kingdom,GB,GBR,Suffolk
Ajdabiya,Ajdabiya,30.76999392,20.21999548,139095.5,Libya,LY,LBY,Ajdabiya
Dunhuang,Dunhuang,40.14267763,94.66201493,139225,China,CN,CHN,Gansu
Otaru,Otaru,43.18871909,140.9783093,139260.5,Japan,JP,JPN,Hokkaido
Kumbakonam,Kumbakonam,10.98047833,79.40000077,139264,India,IN,IND,Tamil Nadu
Cape Coast,Cape Coast,5.11037152,-1.249986004,139265.5,Ghana,GH,GHA,Central
Tartus,Tartus,34.88463448,35.88658405,139374.5,Syria,SY,SYR,Tartus
Tunja,Tunja,5.550448017,-73.37002832,139445.5,Colombia,CO,COL,Boyacá
Sonsonate,Sonsonate,13.7199752,-89.7299858,139724,El Salvador,SV,SLV,Sonsonate
Lajes,Lajes,-27.80958291,-50.30998885,139972,Brazil,BR,BRA,Santa Catarina
Reykjavík,Reykjavik,64.15002362,-21.95001449,140059,Iceland,IS,ISL,Suðurnes
El Manaqil,El Manaqil,14.2503821,32.97999182,140062,Sudan,SD,SDN,Gezira
Hancheng,Hancheng,35.47043052,110.429993,140092,China,CN,CHN,Shaanxi
Peterborough,Peterborough,52.58041974,-0.249995363,140141,United Kingdom,GB,GBR,Peterborough
Gyumri,Gyumri,40.78943402,43.84749385,140277.5,Armenia,AM,ARM,Shirak
Banyuwangi,Banyuwangi,-8.195017884,114.3695975,140295,Indonesia,ID,IDN,Jawa Timur
Settat,Settat,33.01042564,-7.620010622,140415,Morocco,MA,MAR,Chaouia - Ouardigha
Altay,Altay,47.86659894,88.11662634,140670.5,China,CN,CHN,Xinjiang Uygur
Ussuriysk,Ussuriysk,43.80002545,132.019993,140673.5,Russia,RU,RUS,Primor'ye
Daytona Beach,Daytona Beach,29.21055422,-81.0230754,140775.5,United States of America,US,USA,Florida
Podgorica,Podgorica,42.46597251,19.26630692,141161.5,Montenegro,ME,MNE,Podgorica
Nongan,Nongan,44.43040041,125.1700752,141482,China,CN,CHN,Jilin
Dawei,Dawei,14.09796246,98.19497758,141497.5,Myanmar,MM,MMR,Tanintharyi
Jinchang,Jinchang,38.49569806,102.1739078,141670,China,CN,CHN,Gansu
Arnhem,Arnhem,51.98799603,5.922999562,141674,Netherlands,NL,NLD,Gelderland
Naples,Naples,26.14205935,-81.79499211,141902,United States of America,US,USA,Florida
Mbanza-Ngungu,Mbanza-Ngungu,-5.249616273,14.86001257,141950.5,Congo (Kinshasa),CD,COD,Bas-Congo
Ingolstadt,Ingolstadt,48.77041974,11.44998816,141991.5,Germany,DE,DEU,Bayern
Jieshou,Jieshou,33.25043683,115.3500028,141993,China,CN,CHN,Anhui
Perugia,Perugia,43.11037762,12.38998246,141998,Italy,IT,ITA,Umbria
Benguela,Benguela,-12.57826455,13.40723303,142017,Angola,AO,AGO,Benguela
Porlamar,Porlamar,10.9603762,-63.84998926,142027,Venezuela,VE,VEN,Nueva Esparta
Isiro,Isiro,2.75997235,27.62000891,142136,Congo (Kinshasa),CD,COD,Orientale
Limbe,Limbe,4.030385761,9.190022744,142290,Cameroon,CM,CMR,Sud-Ouest
Taitung,Taitung,22.75539268,121.140037,142292,Taiwan,TW,TWN,Taitung
Nawabganj,Nawabganj,24.58039756,88.34999711,142361,Bangladesh,BD,BGD,Rajshahi
Surat Thani,Surat Thani,9.1500991,99.34012732,142414,Thailand,TH,THA,Surat Thani
Bechar,Bechar,31.61110537,-2.230003704,142415.5,Algeria,DZ,DZA,Béchar
Valera,Valera,9.319959533,-70.6200153,142461.5,Venezuela,VE,VEN,Trujillo
Massawa,Massawa,15.61011822,39.45003617,142564,Eritrea,ER,ERI,Debub
Gejiu,Gejiu,23.37997988,103.1500756,142620,China,CN,CHN,Yunnan
Peoria,Peoria,40.69998212,-89.67004114,142622,United States of America,US,USA,Illinois
Tottori,Tottori,35.50037701,134.2332946,142635.5,Japan,JP,JPN,Tottori
Brest,Brest,48.39044293,-4.49500757,142914,France,FR,FRA,Bretagne
Denow,Denow,38.27715843,67.88716345,143134,Uzbekistan,UZ,UZB,Surkhandarya
Rio Grande,Rio Grande,-32.04947915,-52.12000757,143150,Brazil,BR,BRA,Rio Grande do Sul
Waco,Waco,31.54917116,-97.14638066,143157,United States of America,US,USA,Texas
Man,Man,7.400412617,-7.549989056,143157.5,Ivory Coast,CI,CIV,Dix-Huit Montagnes
Maykop,Maykop,44.60997601,40.12002112,143377,Russia,RU,RUS,Adygey
Le Mans,Le Mans,48.00041506,0.099983275,143392.5,France,FR,FRA,Pays de la Loire
Tuzla,Tuzla,44.5504706,18.6800378,143410,Bosnia and Herzegovina,BA,BIH,Tuzla
Bridgetown,Bridgetown,13.10200258,-59.61652674,143865,Barbados,BB,BRB,Saint Michael
George,George,-33.95003497,22.45004024,143915,South Africa,ZA,ZAF,Western Cape
Kafr el Sheikh,Kafr el Sheikh,31.109004,30.93599763,143970,Egypt,EG,EGY,Kafr ash Shaykh
Tizi-Ouzou,Tizi-Ouzou,36.80000111,4.033332556,144000,Algeria,DZ,DZA,Tizi Ouzou
Goma,Goma,-1.678799101,29.2217868,144124,Congo (Kinshasa),CD,COD,Nord-Kivu
Melun,Melun,48.53330243,2.666648314,144192.5,France,FR,FRA,Île-de-France
Dibrugarh,Dibrugarh,27.48332115,94.8999849,144260.5,India,IN,IND,Assam
Trondheim,Trondheim,63.41665753,10.41666622,144336,Norway,NO,NOR,Sør-Trøndelag
Gulu,Gulu,2.779996967,32.28003454,144430.5,Uganda,UG,UGA,Aswa
Chetumal,Chetumal,18.50001935,-88.29999557,144464.5,Mexico,MX,MEX,Quintana Roo
Tall Afar,Tall Afar,36.37598248,42.44974971,144465,Iraq,IQ,IRQ,Ninawa
Waukegan,Waukegan,42.36404075,-87.8447262,144539,United States of America,US,USA,Illinois
Kissimmee,Kissimmee,28.29205731,-81.4077806,144589.5,United States of America,US,USA,Florida
Pasadena,Pasadena,34.16038129,-118.1388719,144618,United States of America,US,USA,California
Ternate,Ternate,0.792960631,127.3630163,144626,Indonesia,ID,IDN,Maluku Utara
Cabo de Santo Agostinho,Cabo de Santo Agostinho,-8.289999167,-35.02999129,144662,Brazil,BR,BRA,Pernambuco
Roanoke,Roanoke,37.27119916,-79.94161686,144669.5,United States of America,US,USA,Virginia
Dourados,Dourados,-22.23002684,-54.80999841,144743.5,Brazil,BR,BRA,Mato Grosso do Sul
Evansville,Evansville,37.97469627,-87.5558291,144788,United States of America,US,USA,Indiana
Osorno,Osorno,-40.56999266,-73.1600153,144952,Chile,CL,CHL,Los Lagos
Livorno,Livorno,43.55113366,10.3022747,145016.5,Italy,IT,ITA,Toscana
Rustenburg,Rustenburg,-25.6500248,27.2400321,145020,South Africa,ZA,ZAF,North West
Mahajanga,Mahajanga,-15.67001382,46.34501583,145158.5,Madagascar,MG,MDG,Mahajanga
Tarakan,Tarakan,3.300016906,117.6330159,145273.5,Indonesia,ID,IDN,Kalimantan Timur
Aix-en-Provence,Aix-en-Provence,43.51999086,5.449992634,145309,France,FR,FRA,Provence-Alpes-Côte-d'Azur
Pensacola,Pensacola,30.42112632,-87.21693506,145319.5,United States of America,US,USA,Florida
Dali,Dali,25.70001914,100.1799727,145362.5,China,CN,CHN,Yunnan
Saveh,Saveh,35.02182741,50.33143917,145384.5,Iran,IR,IRN,Markazi
Gonbad-e Kavus,Gonbad-e Kavus,37.25182049,55.17145382,145699,Iran,IR,IRN,Golestan
Medea,Medea,36.27040753,2.770001179,145863.5,Algeria,DZ,DZA,Médéa
Guangshui,Guangshui,31.62038129,114.0000077,145885.5,China,CN,CHN,Hubei
Tabora,Tabora,-5.020017884,32.80000281,145893.5,Tanzania,TZ,TZA,Tabora
Krishnanagar,Krishnanagar,23.38034161,88.5300378,145926,India,IN,IND,West Bengal
Moundou,Moundou,8.549980691,16.09001501,145936,Chad,TD,TCD,Logone Oriental
Hanzhong,Hanzhong,33.12997906,107.0299939,145986,China,CN,CHN,Shaanxi
Valdivia,Valdivia,-39.7950012,-73.24502303,146509,Chile,CL,CHL,Los Ríos
Pisa,Pisa,43.72046958,10.40002641,146515,Italy,IT,ITA,Toscana
Cienfuegos,Cienfuegos,22.14444806,-80.44029444,146549.5,Cuba,CU,CUB,Cienfuegos
Nyiregyhaza,Nyiregyhaza,47.96532676,21.71871537,146589,Hungary,HU,HUN,Szabolcs-Szatmár-Bereg
Limoges,Limoges,45.82997906,1.249990599,146687.5,France,FR,FRA,Limousin
Mary,Mary,37.6000163,61.83332108,146694,Turkmenistan,TM,TKM,Mary
Ulm,Ulm,48.40039064,9.999999144,146703,Germany,DE,DEU,Baden-Württemberg
Regensburg,Regensburg,49.02040448,12.12002478,146755,Germany,DE,DEU,Bayern
Ambala,Ambala,30.32002138,76.82000321,146787,India,IN,IND,Haryana
Rondonopolis,Rondonopolis,-16.4694999,-54.63998295,146794,Brazil,BR,BRA,Mato Grosso
Willemstad,Willemstad,12.20042971,-69.01998377,146813,Curacao,CW,CUW,
Ilam,Ilam,33.63041363,46.43002356,146917,Iran,IR,IRN,Ilam
Foggia,Foggia,41.46047833,15.55996985,147028,Italy,IT,ITA,Apulia
La Rioja,La Rioja,-29.40995034,-66.84996118,147130,Argentina,AR,ARG,La Rioja
Usak,Usak,38.68036379,29.4200024,147190.5,Turkey,TR,TUR,Usak
El Progreso,El Progreso,14.85,-90.01670359,147197,Guatemala,GT,GTM,El Progreso
Balkh,Balkh,36.75011985,66.89973018,147426,Afghanistan,AF,AFG,Balkh
Mangyshlak,Mangyshlak,43.69045506,51.14173561,147443,Kazakhstan,KZ,KAZ,Mangghystau
Puerto Princesa,Puerto Princesa,9.754267783,118.744384,147882,Philippines,PH,PHL,Palawan
Jijel,Jijel,36.82199703,5.76600356,148000,Algeria,DZ,DZA,Jijel
Lang Son,Lang Son,21.8459971,106.7570016,148000,Vietnam,VN,VNM,Lạng Sơn
Diourbel,Diourbel,14.66038291,-16.24000126,148024,Senegal,SN,SEN,Diourbel
Sioux Falls,Sioux Falls,43.54998903,-96.7299978,148030,United States of America,US,USA,South Dakota
Tirgu Mures,Tirgu Mures,46.55820335,24.55781856,148148,Romania,RO,ROU,Mures
Lianxian,Lianxian,24.78152224,112.3825354,148233,China,CN,CHN,Guangdong
Keren,Keren,15.68039817,38.44999385,148241.5,Eritrea,ER,ERI,Semenawi Keyih Bahri
Palangkaraya,Palangkaraya,-2.209595114,113.9099873,148289,Indonesia,ID,IDN,Kalimantan Tengah
Sobral,Sobral,-3.690021547,-40.35002832,148439.5,Brazil,BR,BRA,Ceará
Riobamba,Riobamba,-1.670041485,-78.65004195,148471,Ecuador,EC,ECU,Chimborazo
Sibolga,Sibolga,1.749982319,98.80000525,148513,Indonesia,ID,IDN,Sumatera Utara
Ciudad del Carmen,Ciudad del Carmen,18.65365928,-91.82448019,148751.5,Mexico,MX,MEX,Campeche
Taranto,Taranto,40.50839174,17.22999711,148807,Italy,IT,ITA,Apulia
Miass,Miass,54.99541445,60.0949259,148834.5,Russia,RU,RUS,Chelyabinsk
Gyeongju,Gyeongju,35.84275922,129.211689,148852.5,South Korea,KR,KOR,Daegu
Bhisho,Bhisho,-32.86999754,27.38999711,149142,South Africa,ZA,ZAF,Eastern Cape
Geelong,Geelong,-38.16749505,144.3956335,149336,Australia,AU,AUS,Victoria
Cedar Rapids,Cedar Rapids,41.96998212,-91.66002303,149338.5,United States of America,US,USA,Iowa
Lemosos,Lemosos,34.67541445,33.0333219,149486,Cyprus,CY,CYP,Limassol
Green Bay,Green Bay,44.5299809,-88.00001388,149811.5,United States of America,US,USA,Wisconsin
Mataro,Mataro,41.53995668,2.45002071,149826,Spain,ES,ESP,Cataluña
Cao Lanh,Cao Lanh,10.46700013,105.6359976,149837,Vietnam,VN,VNM,Đồng Tháp
Chillan,Chillan,-36.60000242,-72.10599695,149874,Chile,CL,CHL,Bío-Bío
Burgos,Burgos,42.35039817,-3.67996688,150251,Spain,ES,ESP,Castilla y León
Caen,Caen,49.18375368,-0.349989259,150361.5,France,FR,FRA,Basse-Normandie
Nzerekore,Nzerekore,7.760003071,-8.829988445,150424.5,Guinea,GN,GIN,Nzerekore
Matsue,Matsue,35.46699404,133.0666475,150527,Japan,JP,JPN,Shimane
Hindupur,Hindupur,13.78035911,77.48998816,150805,India,IN,IND,Andhra Pradesh
Barrie,Barrie,44.38376243,-79.7000037,150886.5,Canada,CA,CAN,Ontario
Dundee,Dundee,56.47038902,-3.000008384,151013.5,United Kingdom,GB,GBR,Dundee
Wurzburg,Wurzburg,49.80043439,9.950028034,151146,Germany,DE,DEU,Bayern
Paterson,Paterson,40.91999453,-74.17000533,151205,United States of America,US,USA,New Jersey
La Serena,La Serena,-29.89999795,-71.24997685,151290,Chile,CL,CHL,Coquimbo
Maragheh,Maragheh,37.42038902,46.22001054,151385,Iran,IR,IRN,East Azarbaijan
Zenica,Zenica,44.21997398,17.91998083,151388,Bosnia and Herzegovina,BA,BIH,Zenica-Doboj
Afyon,Afyon,38.75038535,30.55001094,151564,Turkey,TR,TUR,Afyon
York,York,53.97038658,-1.080022218,151574.5,United Kingdom,GB,GBR,York
Abbotsford,Abbotsford,49.05037681,-122.2999874,151683,Canada,CA,CAN,British Columbia
Almeria,Almeria,36.83034751,-2.429991497,152032.5,Spain,ES,ESP,Andalucía
Odense,Odense,55.40037681,10.38333492,152076.5,Denmark,DK,DNK,Syddanmark
Jayapura,Jayapura,-2.532986228,140.69998,152118,Indonesia,ID,IDN,Papua
Deyang,Deyang,31.13333091,104.3999735,152194,China,CN,CHN,Sichuan
Silchar,Silchar,24.79041058,92.79003617,152393,India,IN,IND,Assam
Battambang,Battambang,13.10001304,103.2000468,152608.5,Cambodia,KH,KHM,Batdâmbâng
Djougou,Djougou,9.700427265,1.680041869,152708.5,Benin,BJ,BEN,Donga
Salinas,Salinas,36.68221702,-121.6416555,152737.5,United States of America,US,USA,California
Myingyan,Myingyan,21.46182823,95.39142777,152762.5,Myanmar,MM,MMR,Mandalay
Funchal,Funchal,32.64998252,-16.88003972,152807,Portugal,PT,PRT,Madeira
Augusta,Augusta,33.46081158,-81.98498051,152895.5,United States of America,US,USA,Georgia
Dingzhou,Dingzhou,38.50042645,114.9999983,152934,China,CN,CHN,Hebei
Faizabad,Faizabad,26.75039431,82.17001257,153047,India,IN,IND,Uttar Pradesh
Huanuco,Huanuco,-9.920028871,-76.24000818,153052,Peru,PE,PER,Huánuco
Kovrov,Kovrov,56.36036989,41.33002478,153060,Russia,RU,RUS,Vladimir
Marbella,Marbella,36.51661989,-4.88333012,153069.5,Spain,ES,ESP,Andalucía
Ayacucho,Ayacucho,-13.17502399,-74.2199506,153173.5,Peru,PE,PER,Ayacucho
Manchester,Manchester,42.99599184,-71.45528731,153221.5,United States of America,US,USA,New Hampshire
Nakhodka,Nakhodka,42.83744855,132.8874336,153235.5,Russia,RU,RUS,Primor'ye
Kattaqorgon,Kattaqorgon,39.90070274,66.2607511,153247.5,Uzbekistan,UZ,UZB,Samarkand
Bertoua,Bertoua,4.580429707,13.67998124,153286.5,Cameroon,CM,CMR,Est
Berezniki,Berezniki,59.42000226,56.75998734,153305,Russia,RU,RUS,Perm'
Mwene-Ditu,Mwene-Ditu,-7.000000388,23.44000565,153328.5,Congo (Kinshasa),CD,COD,Kasaï-Oriental
Norilsk,Norilsk,69.34001691,88.22499182,153336.5,Russia,RU,RUS,Taymyr
Mahabad,Mahabad,36.77037701,45.72004106,153428.5,Iran,IR,IRN,West Azarbaijan
Kimberley,Kimberley,-28.74683836,24.77000199,153676.5,South Africa,ZA,ZAF,Northern Cape
Sibiu,Sibiu,45.79711285,24.13712073,153729.5,Romania,RO,ROU,Sibiu
El Arish,El Arish,31.12488181,33.80056189,153753,Egypt,EG,EGY,Shamal Sina'
Moanda,Moanda,-5.922908509,12.35499752,153915,Congo (Kinshasa),CD,COD,Bas-Congo
Cadiz,Cadiz,36.53499086,-6.225005332,153932.5,Spain,ES,ESP,Andalucía
San Cristobal,San Cristobal,18.4159981,-70.10900052,154040,Dominican Republic,DO,DOM,San Cristóbal
Pathum Thani,Pathum Thani,14.01711468,100.5333361,154412,Thailand,TH,THA,Pathum Thani
Leon,Leon,12.43555747,-86.87943628,154489.5,Nicaragua,NI,NIC,León
Laoag,Laoag,18.1988491,120.5936104,154576.5,Philippines,PH,PHL,Ilocos Norte
Arua,Arua,3.020369892,30.90001542,154700,Uganda,UG,UGA,Arua Municipality
Guaratingueta,Guaratingueta,-22.81996499,-45.18999129,154730,Brazil,BR,BRA,São Paulo
Xapeco,Xapeco,-27.10001382,-52.64002751,154794,Brazil,BR,BRA,Santa Catarina
Antioch,Antioch,36.23333409,36.11667656,154803,Turkey,TR,TUR,Hatay
Beian,Beian,48.23900515,126.4820365,154936,China,CN,CHN,Heilongjiang
Sariwon,Sariwon,38.50700411,125.7620047,154942,North Korea,KP,PRK,Hwanghae-bukto
Kanchipuram,Kanchipuram,12.83372438,79.71667395,155029,India,IN,IND,Tamil Nadu
Majene,Majene,-3.533596986,118.9660095,155046,Indonesia,ID,IDN,Sulawesi Barat
Gonder,Gonder,12.61004295,37.46002844,155072,Ethiopia,ET,ETH,Amhara
Chirchiq,Chirchiq,41.45497479,69.55998124,155093.5,Uzbekistan,UZ,UZB,Tashkent
Konibodom,Konibodom,40.29215171,70.42716345,155117.5,Tajikistan,TJ,TJK,Leninabad
Tarija,Tarija,-21.51668537,-64.749986,155513,Bolivia,BO,BOL,Tarija
Savannah,Savannah,32.02110618,-81.10999516,155848.5,United States of America,US,USA,Georgia
Malabo,Malabo,3.750015278,8.783277546,155963,Equatorial Guinea,GQ,GNQ,Bioko Norte
Rijeka,Rijeka,45.32998374,14.45001176,156082,Croatia,HR,HRV,Primorsko-Goranska
Lakeville,Lakeville,44.65010276,-93.24251042,156151,United States of America,US,USA,Minnesota
Ponce,Ponce,18.00038576,-66.61664209,156484,Puerto Rico,PR,PRI,
Kasama,Kasama,-10.19959837,31.17994665,156500,Zambia,ZM,ZMB,Northern
Baranavichy,Baranavichy,53.13684572,26.01344031,156514.5,Belarus,BY,BLR,Brest
Rustavi,Rustavi,41.57036826,45.05000443,156770,Georgia,GE,GEO,Kvemo Kartli
Thohoyandou,Thohoyandou,-22.95003457,30.48004106,156876.5,South Africa,ZA,ZAF,Limpopo
Jamaame,Jamaame,0.072177754,42.75055823,156923.5,Somalia,SO,SOM,Jubbada Hoose
Hurghada,Hurghada,27.23000327,33.83001745,157204,Egypt,EG,EGY,Al Bahr al Ahmar
Prizren,Prizren,42.22932029,20.75009232,157574.5,Kosovo,,KOS,Prizren
Pingliang,Pingliang,35.53037518,106.6800927,157706,China,CN,CHN,Gansu
San Cristobal de Las Casas,San Cristobal de Las Casas,16.74999697,-92.63337447,157828.5,Mexico,MX,MEX,Chiapas
Hinthada,Hinthada,17.64826255,95.46785722,157837.5,Myanmar,MM,MMR,Ayeyarwady
Gemena,Gemena,3.260019347,19.76999711,157847.5,Congo (Kinshasa),CD,COD,Équateur
Hoshiarpur,Hoshiarpur,31.51997398,75.98000281,158142,India,IN,IND,Punjab
Gainesville,Gainesville,29.65138002,-82.32503727,158390.5,United States of America,US,USA,Florida
Samarra,Samarra,34.19399705,43.87500062,158508,Iraq,IQ,IRQ,Sala ad-Din
Hetauda,Hetauda,27.41668439,85.03335201,158554.5,Nepal,NP,NPL,Narayani
Cuddalore,Cuddalore,11.72040733,79.77000403,158569,India,IN,IND,Tamil Nadu
Funtua,Funtua,11.5203937,7.320007689,158643,Nigeria,NG,NGA,Katsina
Nimes,Nimes,43.83038535,4.350008096,158891.5,France,FR,FRA,Languedoc-Roussillon
Obuasi,Obuasi,6.190408955,-1.659986818,158986.5,Ghana,GH,GHA,Ashanti
Waukesha,Waukesha,43.0116498,-88.23136926,159012,United States of America,US,USA,Wisconsin
Termiz,Termiz,37.23293276,67.27293738,159036,Uzbekistan,UZ,UZB,Surkhandarya
Coquimbo,Coquimbo,-29.95291461,-71.34361454,159082.5,Chile,CL,CHL,Coquimbo
Rubtsovsk,Rubtsovsk,51.52001935,81.21001949,159133,Russia,RU,RUS,Altay
Mostaganem,Mostaganem,35.940376,0.089983885,159177,Algeria,DZ,DZA,Mostaganem
Kragujevac,Kragujevac,44.01996035,20.92000443,159335,Serbia,RS,SRB,Šumadijski
Arad,Arad,46.17000999,21.31998002,159338,Romania,RO,ROU,Arad
Orsk,Orsk,51.21001243,58.62731523,159353,Russia,RU,RUS,Orenburg
Novocherkassk,Novocherkassk,47.41995953,40.08002356,159470.5,Russia,RU,RUS,Rostov
Nakhodka,Nakhodka,67.75039817,77.51996049,159551,Russia,RU,RUS,Yamal-Nenets
Patra,Patra,38.23000368,21.72998083,159579.5,Greece,GR,GRC,Dytiki Ellada
Pagadian,Pagadian,7.852968973,123.5070243,159590,Philippines,PH,PHL,Zamboanga Del Sur
Muar,Muar,2.033737609,102.566597,159621.5,Malaysia,MY,MYS,Johor
Paarl,Paarl,-33.69955931,18.96002071,159791.5,South Africa,ZA,ZAF,Western Cape
Dijon,Dijon,47.33040428,5.030018268,159864,France,FR,FRA,Bourgogne
Dese,Dese,11.12997825,39.63002519,159929,Ethiopia,ET,ETH,Amhara
Taunggyi,Taunggyi,20.78199907,97.03800065,160115,Myanmar,MM,MMR,Shan
Xiaogan,Xiaogan,30.92039817,113.9000138,160437,China,CN,CHN,Hubei
Salamanca,Salamanca,40.97040489,-5.670000449,160456.5,Spain,ES,ESP,Castilla y León
Hong Gai,Hong Gai,20.9604118,107.1000154,160490.5,Vietnam,VN,VNM,Quảng Ninh
Potosi,Potosi,-19.56956907,-65.75002832,160576,Bolivia,BO,BOL,Potosí
Bergamo,Bergamo,45.70040041,9.669993448,160658,Italy,IT,ITA,Lombardia
Malakal,Malakal,9.536897195,31.65598995,160765,South Sudan,SS,SSD,Upper Nile
Pizen,Pizen,49.74043805,13.36000077,161043,Czech Republic,CZ,CZE,Karlovarský
Isparta,Isparta,37.76998008,30.52996049,161089,Turkey,TR,TUR,Isparta
Geneina,Geneina,13.45001752,22.44001501,161145.5,Sudan,SD,SDN,West Darfur
Harar,Harar,9.319959533,42.15002641,161150,Ethiopia,ET,ETH,Harari
Tomakomai,Tomakomai,42.6504057,141.5500057,161355.5,Japan,JP,JPN,Hokkaido
Abakan,Abakan,53.70368451,91.44500199,161377,Russia,RU,RUS,Krasnoyarsk
Budaun,Budaun,28.03000612,79.08999385,161555,India,IN,IND,Uttar Pradesh
Jalal Abad,Jalal Abad,40.94288719,73.00251013,162299.5,Kyrgyzstan,KG,KGZ,Jalal-Abad
Yangmei,Yangmei,24.91666667,121.15,162511,Taiwan,TW,TWN,Taoyuan
Catamarca,Catamarca,-28.47000771,-65.78000065,162586,Argentina,AR,ARG,Catamarca
Nova Friburgo,Nova Friburgo,-22.25999917,-42.54004968,162676,Brazil,BR,BRA,Rio de Janeiro
Simao,Simao,22.78068829,100.9781669,162725,China,CN,CHN,Yunnan
Cork,Cork,51.89860089,-8.49577112,162852,Ireland,IE,IRL,Cork
Navsari,Navsari,20.85039268,72.92003454,163000,India,IN,IND,Dadra and Nagar Haveli
Keluang,Keluang,2.038310973,103.317869,163264,Malaysia,MY,MYS,Johor
Oldenburg,Oldenburg,53.1299986,8.220004434,163338,Germany,DE,DEU,Niedersachsen
Klerksdorp,Klerksdorp,-26.88002724,26.62001827,163362.5,South Africa,ZA,ZAF,North West
Mulhouse,Mulhouse,47.75040448,7.34998002,163442,France,FR,FRA,Alsace
Zhangye,Zhangye,38.9299868,100.4500337,163478,China,CN,CHN,Gansu
Baghlan,Baghlan,36.13933026,68.69925858,163598.5,Afghanistan,AF,AFG,Baghlan
St.-Denis,St.-Denis,-20.87889484,55.44807776,163621,France,RE,FRA,La Réunion
Dagupan,Dagupan,16.04789512,120.3408093,163676,Philippines,PH,PHL,Pangasinan
Luzern,Luzern,47.05042137,8.280000772,163745.5,Switzerland,CH,CHE,Lucerne
As Samawah,As Samawah,31.3098576,45.28027462,163934,Iraq,IQ,IRQ,Al-Muthannia
El Jadida,El Jadida,33.2603587,-8.509982138,164009.5,Morocco,MA,MAR,Doukkala - Abda
Passo Fundo,Passo Fundo,-28.25002114,-52.41998926,164047,Brazil,BR,BRA,Rio Grande do Sul
Crato,Crato,-7.229598776,-39.42000757,164149.5,Brazil,BR,BRA,Ceará
Crato,Crato,-7.46389972,-63.03996118,164149.5,Brazil,BR,BRA,Amazonas
Hawalli,Hawalli,29.33334002,47.99999756,164212,Kuwait,KW,KWT,Hawalli
Kigoma,Kigoma,-4.879613018,29.61001664,164268,Tanzania,TZ,TZA,Kigoma
Tulua,Tulua,4.090382099,-76.21001001,164281.5,Colombia,CO,COL,Valle del Cauca
Uvira,Uvira,-3.369989401,29.14001949,164353,Congo (Kinshasa),CD,COD,Sud-Kivu
Sitapur,Sitapur,27.6300047,80.74999589,164435,India,IN,IND,Uttar Pradesh
Angren,Angren,41.03037539,70.15493201,164513.5,Uzbekistan,UZ,UZB,Tashkent
Gweru,Gweru,-19.45004148,29.82002966,164715.5,Zimbabwe,ZW,ZWE,Midlands
Parma,Parma,44.81042889,10.32003129,164734,Italy,IT,ITA,Emilia-Romagna
Caserta,Caserta,41.05996014,14.33735714,164744,Italy,IT,ITA,Campania
Serang,Serang,-6.109977194,106.1496342,164767,Indonesia,ID,IDN,Banten
Gabes,Gabes,33.90042299,10.09999304,164796,Tunisia,TN,TUN,Gabès
Barlett,Barlett,35.22290041,-89.84109013,164843.5,United States of America,US,USA,Tennessee
Martapura,Martapura,-3.413500957,114.8364941,164844,Indonesia,ID,IDN,Kalimantan Selatan
Ceerigaabo,Ceerigaabo,10.58329807,47.33330461,165000,Somaliland,,SOL,
Chingola,Chingola,-12.53961058,27.85002071,165289.5,Zambia,ZM,ZMB,Copperbelt
Kendari,Kendari,-3.95532835,122.5973124,165377,Indonesia,ID,IDN,Sulawesi Tenggara
Ha Tinh,Ha Tinh,18.33377626,105.900037,165396,Vietnam,VN,VNM,Ha Tinh
Ciudad Madero,Ciudad Madero,22.31890769,-97.836106,165411.5,Mexico,MX,MEX,Tamaulipas
San Fernando,San Fernando,10.28046166,-61.45937678,166039,Trinidad and Tobago,TT,TTO,San Fernando
Maraba,Maraba,-5.349971905,-49.11597905,166182,Brazil,BR,BRA,Pará
Cartagena,Cartagena,37.60042971,-0.980028322,166276.5,Spain,ES,ESP,Región de Murcia
Aracatuba,Aracatuba,-21.20998574,-50.45000615,166305,Brazil,BR,BRA,São Paulo
Fatehpur,Fatehpur,25.88036989,80.80001868,166480,India,IN,IND,Uttar Pradesh
Tonk,Tonk,26.15045677,75.79004024,166532.5,India,IN,IND,Rajasthan
Barra Mansa,Barra Mansa,-22.56003253,-44.1699502,166719,Brazil,BR,BRA,Rio de Janeiro
Benha,Benha,30.46666512,31.18333563,167029,Egypt,EG,EGY,Al Qalyubiyah
Zhaodong,Zhaodong,46.08042889,125.98,167193,China,CN,CHN,Heilongjiang
Temirtau,Temirtau,50.06501772,72.96499304,167193.5,Kazakhstan,KZ,KAZ,Qaraghandy
Bandar-e Bushehr,Bandar-e Bushehr,28.91997764,50.83001339,167218.5,Iran,IR,IRN,Bushehr
Sinuiju,Sinuiju,40.08585939,124.4212837,167234,North Korea,KP,PRK,P'yongan-bukto
Puerto Montt,Puerto Montt,-41.4699894,-72.92997766,167341.5,Chile,CL,CHL,Los Lagos
Como,Como,45.81000612,9.08000362,167438,Italy,IT,ITA,Lombardia
Jamalpur,Jamalpur,24.90042971,89.95000281,167900,Bangladesh,BD,BGD,Dhaka
Salamanca,Salamanca,20.57040977,-101.2000092,168069,Mexico,MX,MEX,Guanajuato
Canton,Canton,40.79886497,-81.37863509,168410,United States of America,US,USA,Ohio
Kutahya,Kutahya,39.42000856,29.92999711,168459.5,Turkey,TR,TUR,Kütahya
Corum,Corum,40.5199931,34.95000077,168544,Turkey,TR,TUR,Çorum
Puqi,Puqi,29.72041974,113.880015,169027.5,China,CN,CHN,Hubei
Jaffna,Jaffna,9.675002461,80.00502844,169069,Sri Lanka,LK,LKA,Jaffna
Medinipur,Medinipur,22.3304057,87.15001868,169127,India,IN,IND,West Bengal
Lhasa,Lhasa,29.64502382,91.10001013,169160,China,CN,CHN,Xizang
Pitesti,Pitesti,44.85631757,24.87583533,169345,Romania,RO,ROU,Arges
Obihiro,Obihiro,42.93041445,143.1700101,169614,Japan,JP,JPN,Hokkaido
Zamora,Zamora,19.98036826,-102.2800208,169931.5,Mexico,MX,MEX,Michoacán
Chirala,Chirala,15.86041302,80.33999508,170000.5,India,IN,IND,Andhra Pradesh
Fuyang,Fuyang,32.90040651,115.82,170023,China,CN,CHN,Anhui
Ruse,Ruse,43.85369143,25.97333939,170254,Bulgaria,BG,BGR,Ruse
Dunhua,Dunhua,43.35049217,128.2200183,170357,China,CN,CHN,Jilin
Colon,Colon,9.365021382,-79.8749801,170488,Panama,PA,PAN,Colón
Atyrau,Atyrau,47.11269147,51.92002437,170583,Kazakhstan,KZ,KAZ,Atyrau
Bo,Bo,7.970016092,-11.74001754,170690.5,Sierra Leone,SL,SLE,Southern
Orleans,Orleans,47.90042116,1.900028441,170725,France,FR,FRA,Centre
Lobito,Lobito,-12.37000853,13.54123002,170733,Angola,AO,AGO,Benguela
Taza,Taza,34.22037762,-4.019971966,170761.5,Morocco,MA,MAR,Taza - Al Hoceima - Taounate
Melbourne,Melbourne,28.08331036,-80.60832035,170870,United States of America,US,USA,Florida
Sirsa,Sirsa,29.4903821,75.02998328,170884,India,IN,IND,Haryana
Djelfa,Djelfa,34.67998781,3.250023558,170901,Algeria,DZ,DZA,Djelfa
Zhuanghe,Zhuanghe,39.6822923,122.9618896,170947,China,CN,CHN,Liaoning
Sirjan,Sirjan,29.46996991,55.73002437,171007,Iran,IR,IRN,Kerman
Pecs,Pecs,46.08042889,18.2200142,171455.5,Hungary,HU,HUN,Baranya
Syzran,Syzran,53.16999615,48.47997595,171589,Russia,RU,RUS,Samara
Hirosaki,Hirosaki,40.56999005,140.4700199,171700.5,Japan,JP,JPN,Aomori
Tebessa,Tebessa,35.41043418,8.120010537,171742,Algeria,DZ,DZA,Tébessa
South Bend,South Bend,41.68330711,-86.25001734,171791,United States of America,US,USA,Indiana
Polokwane,Polokwane,-23.89002887,29.45002641,171897,South Africa,ZA,ZAF,Limpopo
Port-of-Spain,Port-of-Spain,10.65199709,-61.51703089,171982.5,Trinidad and Tobago,TT,TTO,Port of Spain
Bade,Bade,24.9575,121.2988889,172065,Taiwan,TW,TWN,Taoyuan
Varamin,Varamin,35.31658978,51.64660437,172215,Iran,IR,IRN,Tehran
Navoi,Navoi,40.1104057,65.35496659,172276.5,Uzbekistan,UZ,UZB,Navoi
Weinan,Weinan,34.50043805,109.5000756,172321,China,CN,CHN,Shaanxi
Korhogo,Korhogo,9.459976826,-5.639950604,172535,Ivory Coast,CI,CIV,Savanes
Fort-de-France,Fort-de-France,14.6104118,-61.08002914,172622,France,MQ,FRA,Martinique
Bida,Bida,9.080413431,6.01001013,172752.5,Nigeria,NG,NGA,Niger
Balakovo,Balakovo,52.02998822,47.80001745,172821.5,Russia,RU,RUS,Saratov
Noginsk,Noginsk,55.87042564,38.48001786,172855,Russia,RU,RUS,Moskovsskaya
Nablus,Nablus,32.22148155,35.25442663,173153.5,Palestine,PS,PSE,
Qinzhou,Qinzhou,21.95042889,108.6199743,173186,China,CN,CHN,Guangxi
Pinar del Rio,Pinar del Rio,22.41750633,-83.69808008,173304,Cuba,CU,CUB,Pinar del Río
Simla,Simla,31.10002545,77.16659704,173503,India,IN,IND,Himachal Pradesh
Oxford,Oxford,51.7704175,-1.249986004,173681,United Kingdom,GB,GBR,Oxfordshire
Gangneung,Gangneung,37.75587242,128.8961527,173797,South Korea,KR,KOR,Gangwon-do
Chilpancingo,Chilpancingo,17.54997398,-99.5000096,173818.5,Mexico,MX,MEX,Guerrero
Saida,Saida,33.56302757,35.36878658,173894,Lebanon,LB,LBN,South Lebanon
Puerto Cabello,Puerto Cabello,10.47043194,-68.17000981,174000,Venezuela,VE,VEN,Carabobo
Zhubei,Zhubei,24.83333333,121.0119444,174003,Taiwan,TW,TWN,Hsinchu
El Tigre,El Tigre,8.890347513,-64.26001591,174219.5,Venezuela,VE,VEN,Anzoátegui
Waterbury,Waterbury,41.55000775,-73.05002202,174236,United States of America,US,USA,Connecticut
Burgas,Burgas,42.51460004,27.47464311,174254,Bulgaria,BG,BGR,Burgas
Salatiga,Salatiga,-7.309542217,110.4900927,174322.5,Indonesia,ID,IDN,Jawa Tengah
Huangyan,Huangyan,28.65001996,121.2500044,174580.5,China,CN,CHN,Zhejiang
Yuzhno Sakhalinsk,Yuzhno Sakhalinsk,46.96497438,142.7400105,174685,Russia,RU,RUS,Sakhalin
Brownsville,Brownsville,25.91997988,-97.50000248,174707,United States of America,US,USA,Texas
Cachoeiro de Itapemirim,Cachoeiro de Itapemirim,-20.85000771,-41.12998071,174808.5,Brazil,BR,BRA,Espírito Santo
Singkawang,Singkawang,0.911980927,108.9654697,174925,Indonesia,ID,IDN,Kalimantan Barat
Furth,Furth,49.47001528,10.99998979,174934.5,Germany,DE,DEU,Bayern
Modena,Modena,44.65002525,10.91999467,175034.5,Italy,IT,ITA,Emilia-Romagna
Sao Carlos,Sao Carlos,-22.02001382,-47.88998153,175219,Brazil,BR,BRA,São Paulo
Colima,Colima,19.22997479,-103.7200104,175261,Mexico,MX,MEX,Colima
Turku,Turku,60.4538668,22.25496171,175442.5,Finland,FI,FIN,Finland Proper
Ar Raqqah,Ar Raqqah,35.93037661,39.0199849,175600.5,Syria,SY,SYR,Ar Raqqah
Fianarantsoa,Fianarantsoa,-21.43333128,47.08326534,175705.5,Madagascar,MG,MDG,Fianarantsoa
Ziguinchor,Ziguinchor,12.58999249,-16.28999821,175747,Senegal,SN,SEN,Ziguinchor
Tanjungpinang,Tanjungpinang,0.916829039,104.471442,176069,Indonesia,ID,IDN,Kepulauan Riau
Regina,Regina,50.45003298,-104.6170099,176183,Canada,CA,CAN,Saskatchewan
Ouargla,Ouargla,31.96997235,5.340025186,176271,Algeria,DZ,DZA,Ouargla
Zlatoust,Zlatoust,55.17499005,59.64999182,176285,Russia,RU,RUS,Chelyabinsk
Parakou,Parakou,9.340009988,2.620036172,176303,Benin,BJ,BEN,Borgou
Szeged,Szeged,46.25039268,20.15002559,176324,Hungary,HU,HUN,Csongrád
Castello,Castello,39.97041424,-0.05000757,176360,Spain,ES,ESP,Comunidad Valenciana
Minatitlan,Minatitlan,17.9804645,-94.53000289,176398.5,Mexico,MX,MEX,Veracruz
Zacatecas,Zacatecas,22.77043052,-102.5800025,176521.5,Mexico,MX,MEX,Zacatecas
Malayer,Malayer,34.31998395,48.84997921,176573,Iran,IR,IRN,Hamadan
Nakhon Si Thammarat,Nakhon Si Thammarat,8.399989847,99.97001135,176585.5,Thailand,TH,THA,Nakhon Si Thammarat
Kamensk Uralskiy,Kamensk Uralskiy,56.42046958,61.9350203,176598.5,Russia,RU,RUS,Sverdlovsk
Kalemie,Kalemie,-5.933295472,29.20001583,176615.5,Congo (Kinshasa),CD,COD,Katanga
Alappuzha,Alappuzha,9.500413634,76.37000484,176783,India,IN,IND,Kerala
Manta,Manta,-0.980006084,-80.72996668,176941,Ecuador,EC,ECU,Manabi
Nandyal,Nandyal,15.5203821,78.47995357,176995.5,India,IN,IND,Andhra Pradesh
Vellore,Vellore,12.92038576,79.15004187,177081,India,IN,IND,Tamil Nadu
Shishou,Shishou,29.70039512,112.400002,177099,China,CN,CHN,Hubei
Arapiraca,Arapiraca,-9.750013409,-36.66999455,177115,Brazil,BR,BRA,Alagoas
Cordoba,Cordoba,18.92038129,-96.91998621,177483,Mexico,MX,MEX,Veracruz
El Oued,El Oued,33.37040367,6.859984089,177497,Algeria,DZ,DZA,Biskra
Bayamo,Bayamo,20.37954287,-76.64329106,177623,Cuba,CU,CUB,Granma
Bhusawal,Bhusawal,21.01999473,75.8300378,177683.5,India,IN,IND,Maharashtra
Rio Claro,Rio Claro,-22.40996417,-47.56002751,177710,Brazil,BR,BRA,São Paulo
Barrancabermeja,Barrancabermeja,7.089992288,-73.84999903,177802,Colombia,CO,COL,Santander
Batu Pahat,Batu Pahat,1.850363789,102.9333447,177927.5,Malaysia,MY,MYS,Johor
Reims,Reims,49.25039044,4.029975951,177939,France,FR,FRA,Champagne-Ardenne
Zabol,Zabol,31.02145144,61.48145626,177978.5,Iran,IR,IRN,Sistan and Baluchestan
Salzburg,Salzburg,47.81047833,13.0400203,178274,Austria,AT,AUT,Salzburg
Davenport,Davenport,41.55398684,-90.58753036,178282.5,United States of America,US,USA,Iowa
Angers,Angers,47.48000755,-0.530029949,178329.5,France,FR,FRA,Pays de la Loire
Sittwe,Sittwe,20.13999676,92.88000484,178387.5,Myanmar,MM,MMR,Rakhine
Berbera,Berbera,10.43555035,45.01641475,178407,Somaliland,-99,SOL,
Arica,Arica,-18.50002195,-70.28998377,178446.5,Chile,CL,CHL,Arica y Parinacota
Jinshi,Jinshi,29.63210472,111.851715,178453,China,CN,CHN,Hunan
Amarillo,Amarillo,35.22998008,-101.8299966,178526,United States of America,US,USA,Texas
Boma,Boma,-5.829994284,13.04999385,178638,Congo (Kinshasa),CD,COD,Bas-Congo
Fort Collins,Fort Collins,40.56068829,-105.0588693,178818.5,United States of America,US,USA,Colorado
Turpan,Turpan,42.93537539,89.1650378,178863.5,China,CN,CHN,Xinjiang Uygur
Kramatorsk,Kramatorsk,48.71936342,37.53439083,178902.5,Ukraine,UA,UKR,Donets'k
Quelimane,Quelimane,-17.88000812,36.88998572,179032.5,Mozambique,MZ,MOZ,Zambezia
Reggio di Calabria,Reggio di Calabria,38.11499778,15.64136023,179034.5,Italy,IT,ITA,Calabria
Olsztyn,Olsztyn,53.80003522,20.48003129,179236.5,Poland,PL,POL,Warmian-Masurian
Las Tunas,Las Tunas,20.96012758,-76.95438318,179898,Cuba,CU,CUB,Las Tunas
Mallawi,Mallawi,27.73041201,30.83996741,179934.5,Egypt,EG,EGY,Al Minya
Lampang,Lampang,18.29155662,99.48125565,180110,Thailand,TH,THA,Lampang
Tangail,Tangail,24.24997845,89.92003048,180144,Bangladesh,BD,BGD,Dhaka
La Paz,La Paz,24.13995933,-110.3199952,180626,Mexico,MX,MEX,Baja California Sur
Springfield,Springfield,37.18001609,-93.31999923,180691,United States of America,US,USA,Missouri
Kolpino,Kolpino,59.73000917,30.65000484,180938.5,Russia,RU,RUS,City of St. Petersburg
Aydin,Aydin,37.8499752,27.85002071,180939.5,Turkey,TR,TUR,Aydin
Tlimcen,Tlimcen,34.89041424,-1.32000757,181059,Algeria,DZ,DZA,Tlemcen
Kutaisi,Kutaisi,42.24999086,42.72999101,181141.5,Georgia,GE,GEO,Imereti
Anda,Anda,46.39999595,125.3200402,181402,China,CN,CHN,Heilongjiang
Divinopolis,Divinopolis,-20.14953367,-44.89998316,181457,Brazil,BR,BRA,Minas Gerais
Probolinggo,Probolinggo,-7.749618715,113.1500337,181656,Indonesia,ID,IDN,Jawa Timur
Potsdam,Potsdam,52.40040489,13.06999263,181693.5,Germany,DE,DEU,Brandenburg
San Miguel,San Miguel,13.48334881,-88.18333602,181721.5,El Salvador,SV,SLV,San Miguel
Kom Ombo,Kom Ombo,24.46999086,32.95001949,181874.5,Egypt,EG,EGY,Aswan
Severodvinsk,Severodvinsk,64.57002382,39.83001298,182077.5,Russia,RU,RUS,Arkhangel'sk
Bahraich,Bahraich,27.62041872,81.66993974,182218,India,IN,IND,Uttar Pradesh
Laayoune,Laayoune,27.14998232,-13.20000594,182224.5,Morocco,MA,MAR,Laâyoune - Boujdour - Sakia El Hamra
Petropavlovsk Kamchatskiy,Petropavlovsk Kamchatskiy,53.06199241,158.6230204,182270.5,Russia,RU,RUS,Kamchatka
Biratnagar,Biratnagar,26.48374392,87.28334387,182324,Nepal,NP,NPL,Bhojpur
Pinrang,Pinrang,-3.785726299,119.6522208,182731,Indonesia,ID,IDN,Sulawesi Selatan
Shibin el Kom,Shibin el Kom,30.59199913,30.89999749,182900,Egypt,EG,EGY,Al Minufiyah
Criciuma,Criciuma,-28.68002073,-49.38996749,183085.5,Brazil,BR,BRA,Santa Catarina
Engels,Engels,51.50040814,46.12001664,183221,Russia,RU,RUS,Saratov
Punto Fijo,Punto Fijo,11.71999392,-70.21001449,183260,Venezuela,VE,VEN,Falcón
Salalah,Salalah,17.02545819,54.08521521,183508.5,Oman,OM,OMN,Dhofar
Padangsidempuan,Padangsidempuan,1.388738219,99.27336137,183721.5,Indonesia,ID,IDN,Sumatera Utara
Gaborone,Gaborone,-24.64631346,25.91194779,183827,Botswana,BW,BWA,South-East
Tarlac,Tarlac,15.48379519,120.5833785,183930,Philippines,PH,PHL,Tarlac
Dasoguz,Dasoguz,41.83999005,59.96495967,183962,Turkmenistan,TM,TKM,Tashauz
Puerto Vallarta,Puerto Vallarta,20.67709576,-105.2449819,183969,Mexico,MX,MEX,Jalisco
Maiquetia,Maiquetia,10.60039817,-66.9699797,184003,Venezuela,VE,VEN,Vargas
Fayetteville,Fayetteville,35.06293601,-78.88359359,184040.5,United States of America,US,USA,North Carolina
Coro,Coro,11.42001223,-69.67999516,184098,Venezuela,VE,VEN,Falcón
Singaraja,Singaraja,-8.115199274,115.094398,184126,Indonesia,ID,IDN,Bali
Tiarat,Tiarat,35.38043601,1.319960489,184195,Algeria,DZ,DZA,Tiaret
Norwich,Norwich,52.63036501,1.300013386,184196,United Kingdom,GB,GBR,Norfolk
Quang Ngai,Quang Ngai,15.15043052,108.8299873,184625.5,Vietnam,VN,VNM,Quảng Ngãi 
Takapuna,Takapuna,-36.7912569,174.7758329,184815.5,New Zealand,NZ,NZL,Auckland
Mbombela,Nelspruit,-25.46962238,30.98001054,184839,South Africa,ZA,ZAF,Mpumalanga
Kismaayo,Kismaayo,-0.356633282,42.51832434,184901.5,Somalia,SO,SOM,Jubbada Hoose
Tema,Tema,5.640365009,0.010014606,184969.5,Ghana,GH,GHA,Greater Accra
Cabo Frio,Cabo Frio,-22.88998655,-42.03997685,184980,Brazil,BR,BRA,Rio de Janeiro
Mayaguez,Mayaguez,18.20151044,-67.13971094,184993,Puerto Rico,PR,PRI,
Mainz,Mainz,49.98247246,8.273219156,184997,Germany,DE,DEU,Rheinland-Pfalz
Sikasso,Sikasso,11.3204059,-5.679999839,185269.5,Mali,ML,MLI,Sikasso
Arar,Arar,30.99000633,41.02068966,185278,Saudi Arabia,SA,SAU,Al Hudud ash Shamaliyah
Huntsville,Huntsville,34.71995953,-86.60999536,185474.5,United States of America,US,USA,Alabama
Bacau,Bacau,46.57843467,26.91963822,185532,Romania,RO,ROU,Bacau
Coral Springs,Coral Springs,26.27083701,-80.27082158,185548,United States of America,US,USA,Florida
Clermont-Ferrand,Clermont-Ferrand,45.77998212,3.080008096,185865.5,France,FR,FRA,Auvergne
Gusau,Gusau,12.1704057,6.659996296,185925,Nigeria,NG,NGA,Zamfara
Madiun,Madiun,-7.634586976,111.5149914,186099,Indonesia,ID,IDN,Jawa Timur
Talca,Talca,-35.45500771,-71.67000289,186283.5,Chile,CL,CHL,Maule
Aberdeen,Aberdeen,57.17039797,-2.079987021,186577,United Kingdom,GB,GBR,Aberdeen
Porbandar,Porbandar,21.6699809,69.67000037,186778,India,IN,IND,Dadra and Nagar Haveli
Manpo,Manpo,41.14543296,126.2958463,186827,North Korea,KP,PRK,Chagang-do
Nancy,Nancy,48.68368085,6.200024372,187155,France,FR,FRA,Lorraine
Kimchaek,Kimchaek,40.67230939,129.202749,187270,North Korea,KP,PRK,Hamgyong-bukto
Tallahassee,Tallahassee,30.44998761,-84.28003422,187402.5,United States of America,US,USA,Florida
Bac Lieu,Bac Lieu,9.280375385,105.7199963,187500,Vietnam,VN,VNM,Bạc Liêu
Nagaoka,Nagaoka,37.45041302,138.8600406,187560,Japan,JP,JPN,Niigata
Valletta,Valletta,35.89973248,14.51471065,187608,Malta,MT,MLT,
Proddatur,Proddatur,14.7504291,78.57002559,187624,India,IN,IND,Andhra Pradesh
Bahir Dar,Bahir Dar,11.60005292,37.38328894,187823.5,Ethiopia,ET,ETH,Amhara
Hotan,Hotan,37.09971092,79.92694535,187865,China,CN,CHN,Xinjiang Uygur
Ongole,Ongole,15.56037966,80.05003861,187866,India,IN,IND,Andhra Pradesh
Salem,Salem,44.92807029,-123.0238967,187966,United States of America,US,USA,Oregon
Rize,Rize,41.02084108,40.52185705,187976.5,Turkey,TR,TUR,Rize
Dumyat,Dumyat,31.42039349,31.82001094,188149,Egypt,EG,EGY,Dumyat
Qurghonteppa,Qurghonteppa,37.83731447,68.77134721,188287,Tajikistan,TJ,TJK,Khatlon
Moratuwa,Moratuwa,6.780398782,79.88002315,188595,Sri Lanka,LK,LKA,Colombo
Kabwe,Kabwe,-14.44001137,28.44998409,188667,Zambia,ZM,ZMB,Central
Tours,Tours,47.38037539,0.699946654,188858.5,France,FR,FRA,Centre
Salem,Salem,42.5224989,-70.88309175,188982,United States of America,US,USA,Massachusetts
Zumpango,Zumpango,19.81040448,-99.10998173,188994,Mexico,MX,MEX,México
Khvoy,Khvoy,38.53039878,44.97000932,189049,Iran,IR,IRN,West Azarbaijan
Erfurt,Erfurt,50.97005292,11.02996212,189365,Germany,DE,DEU,Thüringen
Sanford,Sanford,28.78995974,-81.27998478,189374.5,United States of America,US,USA,Florida
Ninde,Ninde,26.68037274,119.5300577,189623.5,China,CN,CHN,Fujian
Sadiqabad,Sadiqabad,28.3006356,70.13023067,189876,Pakistan,PK,PAK,Punjab
Ann Arbor,Ann Arbor,42.30037539,-83.71999089,189893,United States of America,US,USA,Michigan
Pskov,Pskov,57.82999595,28.32993974,189979.5,Russia,RU,RUS,Pskov
Jiutai,Jiutai,44.14473309,125.8443493,190257,China,CN,CHN,Jilin
Butuan,Butuan,8.949542866,125.5435925,190557,Philippines,PH,PHL,Agusan del Norte
Bhiwani,Bhiwani,28.81001019,76.12500688,190855,India,IN,IND,Haryana
Marilia,Marilia,-22.21002806,-49.95001083,191083.5,Brazil,BR,BRA,São Paulo
Kushiro,Kushiro,42.97495953,144.3746911,191089,Japan,JP,JPN,Hokkaido
Lalitpur,Lalitpur,27.66661745,85.3333337,191208.5,Nepal,NP,NPL,Bhaktapur
Lausanne,Lausanne,46.53042727,6.650022744,191226.5,Switzerland,CH,CHE,Vaud
Dhamar,Dhamar,14.5574693,44.3874609,191259,Yemen,YE,YEM,Dhamar
Klaipeda,Klaipeda,55.72040896,21.11994055,191334,Lithuania,LT,LTU,Klaipedos
Beipiao,Beipiao,41.81001772,120.7600085,191757,China,CN,CHN,Liaoning
Armavir,Armavir,45.00039146,41.13003699,191813.5,Russia,RU,RUS,Krasnodar
Portoviejo,Portoviejo,-1.060001201,-80.45998316,191963.5,Ecuador,EC,ECU,Manabi
Curepipe,Curepipe,-20.31619017,57.51663367,192087.5,Mauritius,MU,MUS,
Tubruq,Tubruq,32.07999147,23.96002559,192289.5,Libya,LY,LBY,Al Butnan
Nanping,Nanping,26.63037579,118.1699857,192364,China,CN,CHN,Fujian
Bila Tserkva,Bila Tserkva,49.77431195,30.13091508,192418.5,Ukraine,UA,UKR,Kiev
Az Aubayr,Az Aubayr,30.38916445,47.70798173,192447.5,Iraq,IQ,IRQ,Al-Basrah
Al Khums,Al Khums,32.66042116,14.25999752,192502,Libya,LY,LBY,Al Marqab
Tebingtinggi,Tebingtinggi,3.33037681,99.13001094,192786.5,Indonesia,ID,IDN,Sumatera Utara
Machilipatnam,Machilipatnam,16.20041811,81.17999548,192827,India,IN,IND,Andhra Pradesh
Korla,Korla,41.72999676,86.15002803,192919,China,CN,CHN,Xinjiang Uygur
Ilheus,Ilheus,-14.7800423,-39.05000431,193060.5,Brazil,BR,BRA,Bahia
Az Zawiyah,Az Zawiyah,32.76041506,12.71998816,193061.5,Libya,LY,LBY,Az Zawiyah
Santa Rosa,Santa Rosa,38.45040367,-122.6999889,193455,United States of America,US,USA,California
Da Lat,Da Lat,11.93042035,108.4199865,193698,Vietnam,VN,VNM,Lâm Đồng
Kofu,Kofu,35.6503937,138.5833134,193770,Japan,JP,JPN,Yamanashi
Skikda,Skikda,36.88042198,6.899981647,193941.5,Algeria,DZ,DZA,Skikda
Jizzax,Jizzax,40.10038047,67.83000932,193997,Uzbekistan,UZ,UZB,Jizzakh
Saskatoon,Saskatoon,52.17003135,-106.6699854,194075.5,Canada,CA,CAN,Saskatchewan
Al Mukalla,Al Mukalla,14.54116538,49.12593135,194080.5,Yemen,YE,YEM,Hadramawt
Al Jahra,Al Jahra,29.33747154,47.6580623,194193,Kuwait,KW,KWT,Al Jahrah
Nassau,Nassau,25.08339012,-77.35004378,194453,The Bahamas,BS,BHS,
Montgomery,Montgomery,32.36160219,-86.27918868,194491.5,United States of America,US,USA,Alabama
Youngstown,Youngstown,41.09969932,-80.64973902,194765,United States of America,US,USA,Ohio
Sete Lagoas,Sete Lagoas,-19.44962807,-44.24999699,195032,Brazil,BR,BRA,Minas Gerais
Eugene,Eugene,44.05001019,-123.1000161,195183,United States of America,US,USA,Oregon
Adiyaman,Adiyaman,37.77039349,38.27992672,195497,Turkey,TR,TUR,Adiyaman
Split,Split,43.52040428,16.46999182,195527.5,Croatia,HR,HRV,Splitsko-Dalmatinska
Jinja,Jinja,0.44042401,33.19992672,195659.5,Uganda,UG,UGA,Jinja
Gandhinagar,Gandhinagar,23.30039817,72.63994828,195891,India,IN,IND,Dadra and Nagar Haveli
Santander,Santander,43.3804645,-3.799985394,196025.5,Spain,ES,ESP,Cantabria
Beer Sheva,Beer Sheva,31.2500163,34.8300081,196504,Israel,IL,ISR,HaDarom
Kure,Kure,34.25097007,132.5655928,196807.5,Japan,JP,JPN,Hiroshima
Burhanpur,Burhanpur,21.30039105,76.13001949,197233,India,IN,IND,Madhya Pradesh
Gurgaon,Gurgaon,28.45000633,77.01999101,197340,India,IN,IND,Haryana
Thanh Hoa,Thanh Hoa,19.8200163,105.7999914,197551,Vietnam,VN,VNM,Thanh Hóa
Maradi,Maradi,13.49164288,7.096403767,198021,Niger,NE,NER,Maradi
Zicheng,Zicheng,30.30043601,111.5000052,198212.5,China,CN,CHN,Hubei
Ubon Ratchathani,Ubon Ratchathani,15.24995933,104.8300248,198213,Thailand,TH,THA,Ubon Ratchathani
Saint-Louis,Saint-Louis,16.01998985,-16.51001062,198396,Mauritania,MR,MRT,Trarza
Purnia,Purnia,25.78541445,87.4799727,198453,India,IN,IND,Bihar
Bern,Bern,46.91668276,7.466975462,198480,Switzerland,CH,CHE,Bern
Bulandshahr,Bulandshahr,28.4103705,77.84841589,198612,India,IN,IND,Uttar Pradesh
Lansing,Lansing,42.73352724,-84.54673629,198821.5,United States of America,US,USA,Michigan
Osnabrück,Osnabruck,52.28043805,8.049988972,198865,Germany,DE,DEU,Niedersachsen
Groningen,Groningen,53.22040651,6.580001179,198941,Netherlands,NL,NLD,Groningen
Vitoria,Vitoria,42.84998008,-2.669976849,199109.5,Spain,ES,ESP,País Vasco
Kindu,Kindu,-2.963915996,25.90998409,199306,Congo (Kinshasa),CD,COD,Maniema
Khon Kaen,Khon Kaen,16.42004295,102.8300435,199317.5,Thailand,TH,THA,Khon Kaen
Dodoma,Dodoma,-6.183306052,35.75000362,199405,Tanzania,TZ,TZA,Dodoma
Presidente Prudente,Presidente Prudente,-22.12000771,-51.39000045,199722,Brazil,BR,BRA,São Paulo
Meymaneh,Meymaneh,35.93022158,64.77009273,199795,Afghanistan,AF,AFG,Faryab
Pokhara,Pokhara,28.26399603,83.97199855,200000,Nepal,NP,NPL,Gorkha
Starsy Oskol,Starsy Oskol,51.30042035,37.83995357,200131,Russia,RU,RUS,Belgorod
Sidi bel Abbes,Sidi bel Abbes,35.19034426,-0.639971559,200186.5,Algeria,DZ,DZA,Sidi Bel Abbès
Bojnurd,Bojnurd,37.46999839,57.32000484,200311.5,Iran,IR,IRN,North Khorasan
Bergen,Bergen,60.39100242,5.324522256,200389.5,Norway,NO,NOR,Hordaland
Yamoussoukro,Yamoussoukro,6.81838096,-5.275502565,200514.5,Ivory Coast,CI,CIV,Lacs
Rostock,Rostock,54.07038047,12.14999711,200686.5,Germany,DE,DEU,Mecklenburg-Vorpommern
Haldia,Haldia,22.02566978,88.05833533,200762,India,IN,IND,West Bengal
Dindigul,Dindigul,10.37997235,78.00003454,200797,India,IN,IND,Tamil Nadu
Owo,Owo,7.200398986,5.589984089,200912,Nigeria,NG,NGA,Ondo
Puri,Puri,19.82042971,85.90001746,201026,India,IN,IND,Orissa
Sibu,Sibu,2.302971821,111.8430334,201035.5,Malaysia,MY,MYS,Sarawak
Tshikapa,Tshikapa,-6.409958884,20.77003943,201256.5,Congo (Kinshasa),CD,COD,Kasaï-Occidental
Gedaref,Gedaref,14.03998151,35.38000036,201282,Sudan,SD,SDN,Gedarif
Governador Valadares,Governador Valadares,-18.87002521,-41.97000696,201317,Brazil,BR,BRA,Minas Gerais
Wollongong,Wollongong,-34.41538125,150.890004,201319.5,Australia,AU,AUS,New South Wales
Lashkar Gah,Lashkar Gah,31.58299802,64.35999955,201546,Afghanistan,AF,AFG,Hilmand
Pingzhen,Pingzhen,24.94388889,121.2161111,201632,Taiwan,TW,TWN,Taoyuan
Chiniot,Chiniot,31.71998761,72.97997921,201781,Pakistan,PK,PAK,Punjab
Rzeszow,Rzeszow,50.07046958,22.00004187,202034,Poland,PL,POL,Subcarpathian
Biskra,Biskra,34.85997683,5.73002722,202103,Algeria,DZ,DZA,Biskra
Columbus,Columbus,32.47043276,-84.98001734,202225,United States of America,US,USA,Georgia
Barisal,Barisal,22.70040895,90.37498979,202242,Bangladesh,BD,BGD,Barisal
Formosa,Formosa,-26.17283527,-58.1828158,202272,Argentina,AR,ARG,Formosa
Mossoro,Mossoro,-5.190033347,-37.34000533,202294,Brazil,BR,BRA,Rio Grande do Norte
Boa Vista,Boa Vista,2.816092955,-60.66599756,202299.5,Brazil,BR,BRA,Roraima
Acarigua,Acarigua,9.580382913,-69.20002446,202312.5,Venezuela,VE,VEN,Portuguesa
Linhai,Linhai,28.85000775,121.1199865,202348,China,CN,CHN,Zhejiang
La Romana,La Romana,18.41700116,-68.96660201,202471.5,Dominican Republic,DO,DOM,La Romana
Timon,Timon,-5.114999167,-42.84496647,203157,Brazil,BR,BRA,Maranhão
Greenville,Greenville,34.85292299,-82.3941545,203256.5,United States of America,US,USA,South Carolina
Agartala,Agartala,23.83540428,91.27999914,203264,India,IN,IND,Tripura
Imperatriz,Imperatriz,-5.520039043,-47.49000594,203339.5,Brazil,BR,BRA,Maranhão
San-Pedro,San-Pedro,4.77041811,-6.639967083,203512,Ivory Coast,CI,CIV,Bas-Sassandra
Ulanhot,Ulanhot,46.08001548,122.0800313,203870,China,CN,CHN,Nei Mongol
Rybinsk,Rybinsk,58.05034426,38.81999711,203874.5,Russia,RU,RUS,Yaroslavl'
Campeche,Campeche,19.82998985,-90.49999048,204048.5,Mexico,MX,MEX,Campeche
Monywa,Monywa,22.1049931,95.14999548,204116.5,Myanmar,MM,MMR,Sagaing
Rennes,Rennes,48.10002138,-1.670012046,204329.5,France,FR,FRA,Bretagne
Rockford,Rockford,42.26970542,-89.06969019,204371.5,United States of America,US,USA,Illinois
Ijebu Ode,Ijebu Ode,6.820448017,3.920008503,204501,Nigeria,NG,NGA,Ogun
Oral,Oral,51.27111981,51.33499548,204894,Kazakhstan,KZ,KAZ,West Kazakhstan
Santa Ana,Santa Ana,13.9946096,-89.55976363,205569.5,El Salvador,SV,SLV,Santa Ana
Machala,Machala,-3.260021953,-79.95998784,205578.5,Ecuador,EC,ECU,El Oro
Cadiz,Cadiz,10.95874839,123.3085868,206105,Philippines,PH,PHL,Negros Occidental
Shakhty,Shakhty,47.72038047,40.2700378,206203.5,Russia,RU,RUS,Rostov
Flint,Flint,43.0128642,-83.68753809,206235,United States of America,US,USA,Michigan
Chattanooga,Chattanooga,35.06998985,-85.25000086,206571.5,United States of America,US,USA,Tennessee
Blagoveshchensk,Blagoveshchensk,50.26660748,127.5333418,206711,Russia,RU,RUS,Amur
Ksar El Kebir,Ksar El Kebir,35.02038047,-5.909985801,207676.5,Morocco,MA,MAR,Tanger - Tétouan
Abha,Abha,18.2300875,42.50013424,207802.5,Saudi Arabia,SA,SAU,`Asir
Blackpool,Blackpool,53.83039512,-3.050005332,207946.5,United Kingdom,GB,GBR,Lancashire
Cap-Haitien,Cap-Haitien,19.7592224,-72.21251602,208151,Haiti,HT,HTI,Nord
Toamasina,Toamasina,-18.18179848,49.40498409,208299.5,Madagascar,MG,MDG,Toamasina
Kirikkale,Kirikkale,39.85036989,33.52998409,208554.5,Turkey,TR,TUR,Kinkkale
Iwo,Iwo,7.629959329,4.179992634,208688.5,Nigeria,NG,NGA,Osun
Pali,Pali,25.79037539,73.32993201,208748.5,India,IN,IND,Rajasthan
Lancaster,Lancaster,40.03777447,-76.30576644,209489,United States of America,US,USA,Pennsylvania
Kremenchuk,Kremenchuk,49.08352724,33.42962846,209496.5,Ukraine,UA,UKR,Poltava
Santarem,Santarem,-2.433250713,-54.69997929,209737.5,Brazil,BR,BRA,Pará
Tapachula,Tapachula,14.89998069,-92.2699858,209741,Mexico,MX,MEX,Chiapas
Biysk,Biysk,52.53406598,85.18000972,209796.5,Russia,RU,RUS,Altay
Laiyang,Laiyang,36.9684011,120.7084354,209797,China,CN,CHN,Shandong
Mandya,Mandya,12.57038129,76.91999711,209939.5,India,IN,IND,Karnataka
Koblenz,Koblenz,50.35047833,7.599990599,209976,Germany,DE,DEU,Rheinland-Pfalz
Thai Binh,Thai Binh,20.45030412,106.3330296,210000,Vietnam,VN,VNM,Thái Bình
Miskolc,Miskolc,48.10040896,20.78001298,210197,Hungary,HU,HUN,Borsod-Abaúj-Zemplén
Oradea,Oradea,47.04998212,21.91999508,210222,Romania,RO,ROU,Bihor
Kosice,Kosice,48.73044802,21.25001013,210316.5,Slovakia,SK,SVK,Košický
Nizhnekamsk,Nizhnekamsk,55.64043968,51.82003048,210363,Russia,RU,RUS,Tatarstan
Amol,Amol,36.4713255,52.36330481,210516,Iran,IR,IRN,Mazandaran
Kondoz,Kondoz,36.72795066,68.87252966,210855.5,Afghanistan,AF,AFG,Kunduz
Zinder,Zinder,13.79999615,8.983317015,210891,Niger,NE,NER,Zinder
Al Fallujah,Al Fallujah,33.34766604,43.77726558,210989,Iraq,IQ,IRQ,Al-Anbar
San Pedro de Macoris,San Pedro de Macoris,18.4503583,-69.29996668,211019.5,Dominican Republic,DO,DOM,San Pedro de Macorís
Springs,Springs,-26.26957355,28.43003699,211238.5,South Africa,ZA,ZAF,Gauteng
Beni,Beni,0.490446797,29.45002641,211275.5,Congo (Kinshasa),CD,COD,Nord-Kivu
Lutsk,Lutsk,50.7471983,25.33337846,211980,Ukraine,UA,UKR,Volyn
Kielce,Kielce,50.8903937,20.6600203,212165.5,Poland,PL,POL,Swietokrzyskie
Nacala,Nacala,-14.51861123,40.71502356,212212.5,Mozambique,MZ,MOZ,Nampula
Evanston,Evanston,42.04834943,-87.69995467,212243,United States of America,US,USA,Illinois
Lubbock,Lubbock,33.58000327,-101.8799677,212343.5,United States of America,US,USA,Texas
Nicosia,Nicosia,35.16667645,33.36663489,212376,Cyprus,CY,CYP,
Sekondi,Sekondi,4.943275776,-1.704015138,212560,Ghana,GH,GHA,Western
Babruysk,Babruysk,53.12656211,29.19278113,212821.5,Belarus,BY,BLR,Mahilyow
Matadi,Matadi,-5.816610088,13.45002112,212985.5,Congo (Kinshasa),CD,COD,Bas-Congo
St. Charles,St. Charles,38.78428509,-90.50616581,213139.5,United States of America,US,USA,Missouri
Qyzylorda,Qyzylorda,44.80001609,65.46498572,213259.5,Kazakhstan,KZ,KAZ,Qyzylorda
Braila,Braila,45.29199615,27.96900354,213569,Romania,RO,ROU,Braila
Trieste,Trieste,45.65037762,13.80002559,213609.5,Italy,IT,ITA,Friuli-Venezia Giulia
Itabuna,Itabuna,-14.78960244,-39.28001611,213799,Brazil,BR,BRA,Bahia
Jackson,Jackson,32.29881533,-90.18499679,213799,United States of America,US,USA,Mississippi
Neuquen,Neuquen,-38.95003986,-68.05999068,213823.5,Argentina,AR,ARG,Neuquén
Dili,Dili,-8.559388409,125.5794559,213947,East Timor,TL,TLS,Dili
Le Havre,Le Havre,49.50497438,0.104970051,214048,France,FR,FRA,Haute-Normandie
Pathankot,Pathankot,32.27034161,75.72001868,214146.5,India,IN,IND,Himachal Pradesh
Poza Rica de Hidalgo,Poza Rica de Hidalgo,20.55043683,-97.46997848,214503.5,Mexico,MX,MEX,Veracruz
Petropavlovsk,Petropavlovsk,54.87999514,69.22000199,214579,Kazakhstan,KZ,KAZ,North Kazakhstan
Mubi,Mubi,10.2703408,13.2700321,214710,Nigeria,NG,NGA,Adamawa
Luton,Luton,51.88035911,-0.420010825,214813.5,United Kingdom,GB,GBR,Luton
Owerri,Owerri,5.492997053,7.026003588,215038,Nigeria,NG,NGA,Imo
Pescara,Pescara,42.45543052,14.21865637,215537.5,Italy,IT,ITA,Abruzzo
Palmas,Palmas,-10.23773558,-48.2877867,215793.5,Brazil,BR,BRA,Tocantins
Sabzewar,Sabzewar,36.22002301,57.63001176,215910.5,Iran,IR,IRN,Razavi Khorasan
Monclova,Monclova,26.89999758,-101.4199958,216004,Mexico,MX,MEX,Coahuila
Pathein,Pathein,16.77040916,94.74996822,216014.5,Myanmar,MM,MMR,Ayeyarwady
Palm Springs,Palm Springs,33.77735557,-116.5330526,216461,United States of America,US,USA,California
Mutare,Mutare,-18.97001911,32.6500378,216785,Zimbabwe,ZW,ZWE,Manicaland
Xinzhou,Xinzhou,38.41043194,112.7199825,216805,China,CN,CHN,Shanxi
Colombo,Colombo,6.931965758,79.85775061,217000,Sri Lanka,LK,LKA,Colombo
Tanga,Tanga,-5.070040671,39.09000647,217155.5,Tanzania,TZ,TZA,Tanga
Alajuela,Alajuela,10.02002016,-84.23003727,217618.5,Costa Rica,CR,CRI,Alajuela
Debrecen,Debrecen,47.53046958,21.63003861,217705,Hungary,HU,HUN,Hajdú-Bihar
Matsumoto,Matsumoto,36.2404352,137.9700175,217796.5,Japan,JP,JPN,Nagano
Uitenhage,Uitenhage,-33.75960732,25.39001583,217839,South Africa,ZA,ZAF,Eastern Cape
Ambato,Ambato,-1.269600811,-78.61999211,217897,Ecuador,EC,ECU,Napo
Chuncheon,Chuncheon,37.87470237,127.7341565,218127.5,South Korea,KR,KOR,Gangwon-do
Bandar Seri Begawan,Bandar Seri Begawan,4.883331115,114.9332841,218250,Brunei,BN,BRN,Brunei and Muara
Wuhai,Wuhai,39.66469647,106.8122294,218427,China,CN,CHN,Nei Mongol
Velikiy Novgorod,Velikiy Novgorod,58.4999809,31.33001501,218717,Russia,RU,RUS,Novgorod
Hami,Hami,42.82698407,93.51500484,218960,China,CN,CHN,Xinjiang Uygur
Nagercoil,Nagercoil,8.180365009,77.42999182,219093.5,India,IN,IND,Tamil Nadu
Thanjavur,Thanjavur,10.77041363,79.15004187,219571,India,IN,IND,Tamil Nadu
Miri,Miri,4.399923929,113.9845048,219957.5,Malaysia,MY,MYS,Sarawak
Myeik,Myeik,12.45408347,98.61148962,220009,Myanmar,MM,MMR,Tanintharyi
Sterlitamak,Sterlitamak,53.62999392,55.96003617,220040,Russia,RU,RUS,Bashkortostan
Cabanatuan,Cabanatuan,15.50208864,120.9617016,220250,Philippines,PH,PHL,Nueva Ecija
Al Khalil,Al Khalil,31.54059287,35.09557328,220395.5,Palestine,PS,PSE,
Novi Sad,Novi Sad,45.2503762,19.84994055,220428.5,Serbia,RS,SRB,Južno-Backi
Butembo,Butembo,0.130003681,29.28001094,220512,Congo (Kinshasa),CD,COD,Nord-Kivu
Yakutsk,Yakutsk,62.03495892,129.7350162,220813,Russia,RU,RUS,Sakha (Yakutia)
El Fasher,El Fasher,13.62998069,25.35001827,220906,Sudan,SD,SDN,Northern Darfur
Saint-Etienne,Saint-Etienne,45.43039105,4.380032103,220982,France,FR,FRA,Rhône-Alpes
Hailar,Hailar,49.19998008,119.7000215,221118.5,China,CN,CHN,Nei Mongol
Groznyy,Groznyy,43.31868532,45.69869869,221237.5,Russia,RU,RUS,Chechnya
Neyshabur,Neyshabur,36.22002301,58.82001664,221314.5,Iran,IR,IRN,Razavi Khorasan
Chon Buri,Chon Buri,13.40040814,100.9999743,221340.5,Thailand,TH,THA,Chon Buri
Banja Luka,Banja Luka,44.78040489,17.17997432,221422,Bosnia and Herzegovina,BA,BIH,Serbian Republic
Gueckedou,Gueckedou,8.553996122,-10.1510005,221715,Guinea,GN,GIN,Nzerekore
Mobile,Mobile,30.68002525,-88.04998499,221870,United States of America,US,USA,Alabama
Ivano-Frankivsk,Ivano-Frankivsk,48.93475079,24.70938554,222719.5,Ukraine,UA,UKR,Ivano-Frankivs'k
Juazeiro do Norte,Juazeiro do Norte,-7.210013409,-39.32001367,222861,Brazil,BR,BRA,Ceará
Rancagua,Rancagua,-34.17002155,-70.73998214,222981.5,Chile,CL,CHL,Libertador General Bernardo O'Higgins
Iquique,Iquique,-20.24999266,-70.12996769,223012,Chile,CL,CHL,Tarapacá
Sucre,Sucre,-19.04097085,-65.25951563,223287,Bolivia,BO,BOL,Chuquisaca
Haeju,Haeju,38.039421,125.7143831,223313.5,North Korea,KP,PRK,Hwanghae-namdo
Oostanay,Oostanay,53.22089744,63.62830196,223450.5,Kazakhstan,KZ,KAZ,Qostanay
Oviedo,Oviedo,43.35049217,-5.829990683,223524.5,Spain,ES,ESP,Principado de Asturias
Narayanganj,Narayanganj,23.62040448,90.49999508,223622,Bangladesh,BD,BGD,Dhaka
Okara,Okara,30.81040489,73.45002803,223648,Pakistan,PK,PAK,Punjab
Lubeck,Lubeck,53.87039268,10.66998409,223798.5,Germany,DE,DEU,Schleswig-Holstein
Messina,Messina,38.2004706,15.5499963,224047.5,Italy,IT,ITA,Sicily
Shreveport,Shreveport,32.50001752,-93.77002344,224099,United States of America,US,USA,Louisiana
San Pablo,San Pablo,14.06956626,121.3226098,224203.5,Philippines,PH,PHL,Laguna
Sasebo,Sasebo,33.1631295,129.7177046,224347.5,Japan,JP,JPN,Nagasaki
Karnal,Karnal,29.68044802,76.96996822,225049,India,IN,IND,Haryana
Nyanza,Nyanza,-2.349586569,29.74003454,225209,Rwanda,RW,RWA,Southern
Hachinohe,Hachinohe,40.50999371,141.5400321,225575,Japan,JP,JPN,Aomori
Trenton,Trenton,40.2169625,-74.74335535,225713,United States of America,US,USA,New Jersey
Lancaster,Lancaster,34.69804873,-118.135823,225799,United States of America,US,USA,California
Baqubah,Baqubah,33.74764162,44.65726355,226014.5,Iraq,IQ,IRQ,Diyala
Quzhou,Quzhou,28.97043968,118.8699947,226108,China,CN,CHN,Zhejiang
Parana,Parana,-31.73332273,-60.53334416,226852,Argentina,AR,ARG,Entre Ríos
Liaocheng,Liaocheng,36.4304236,115.9700166,226930,China,CN,CHN,Shandong
Quillacollo,Quillacollo,-17.39998574,-66.27999597,227052,Bolivia,BO,BOL,Cochabamba
Taiping,Taiping,4.864960143,100.7199914,227371,Malaysia,MY,MYS,Perak
Magdeburg,Magdeburg,52.13042137,11.62000362,227378.5,Germany,DE,DEU,Sachsen-Anhalt
Pondicherry,Pondicherry,11.93499371,79.83000037,227411,India,IN,IND,Puducherry
Hyeson,Hyeson,41.39273053,128.1927331,227461,North Korea,KP,PRK,Ryanggang
Little Rock,Little Rock,34.73608258,-92.33109318,227555,United States of America,US,USA,Arkansas
Ambon,Ambon,-3.716686586,128.2000195,227561,Indonesia,ID,IDN,Maluku
Oruro,Oruro,-17.97995034,-67.12999577,227592.5,Bolivia,BO,BOL,Oruro
Ogden,Ogden,41.23237856,-111.9680341,227774,United States of America,US,USA,Utah
Petrolina,Petrolina,-9.380010153,-40.50996688,227817.5,Brazil,BR,BRA,Pernambuco
Cagliari,Cagliari,39.22239789,9.103981485,227880,Italy,IT,ITA,Sardegna
Nukus,Nukus,42.47000327,59.61500688,228211,Uzbekistan,UZ,UZB,Karakalpakstan
Er Rachidia,Er Rachidia,31.94041343,-4.449971559,228489,Morocco,MA,MAR,Meknès - Tafilalet
Itu,Itu,-23.26004148,-47.30001754,228878,Brazil,BR,BRA,São Paulo
Iskenderun,Iskenderun,36.58041445,36.17002966,228954,Turkey,TR,TUR,Hatay
Vung Tau,Vung Tau,10.35537437,107.0849776,229225,Vietnam,VN,VNM,Bà Rịa–Vũng Tàu
Cascavel,Cascavel,-24.95957599,-53.46002914,229300,Brazil,BR,BRA,Paraná
Bharatpur,Bharatpur,27.25036379,77.50001339,229384,India,IN,IND,Rajasthan
Cotabato,Cotabato,7.216909606,124.2484261,229476,Philippines,PH,PHL,Shariff Kabunsuan
Nawabshah,Nawabshah,26.24543805,68.40000037,229504,Pakistan,PK,PAK,Sind
Hualien,Hualien,23.98374147,121.6000089,229563,Taiwan,TW,TWN,Hualien
Mbandaka,Mbandaka,0.040035013,18.26001176,229590.5,Congo (Kinshasa),CD,COD,Équateur
Noginsk,Noginsk,64.48331077,91.23333533,229731,Russia,RU,RUS,Evenk
Novorossiysk,Novorossiysk,44.72996869,37.76993201,229927,Russia,RU,RUS,Krasnodar
Nis,Nis,43.33041587,21.8999963,230444,Serbia,RS,SRB,Nišavski
Syktyvkar,Syktyvkar,61.65999473,50.81998816,230524.5,Russia,RU,RUS,Komi
Khammam,Khammam,17.28042971,80.16005774,230671,India,IN,IND,Andhra Pradesh
Ploiesti,Ploiesti,44.94690635,26.036488,230696.5,Romania,RO,ROU,Prahova
Tampere,Tampere,61.5000045,23.75001257,230983,Finland,FI,FIN,Pirkanmaa
Provo,Provo,40.24889854,-111.63777,231238,United States of America,US,USA,Utah
Turkmenabat,Turkmenabat,39.11000165,63.58003617,231665.5,Turkmenistan,TM,TKM,Chardzhou
Angarsk,Angarsk,52.56000755,103.9200028,231719,Russia,RU,RUS,Irkutsk
Los Mochis,Los Mochis,25.78998781,-108.9999982,231824,Mexico,MX,MEX,Sinaloa
Saidpur,Saidpur,25.80042645,88.99998328,232209,Bangladesh,BD,BGD,Rajshahi
Worcester,Worcester,42.27042889,-71.80002079,232290.5,United States of America,US,USA,Massachusetts
Århus,Aarhus,56.157204,10.21068396,232325.5,Denmark,DK,DNK,Midtjylland
Swansea,Swansea,51.6299868,-3.950002077,232611,United Kingdom,GB,GBR,Swansea
Yumen,Yumen,39.83003522,97.72999304,233097,China,CN,CHN,Gansu
Al-Qatif,Al-Qatif,26.5196332,50.01151037,233575.5,Saudi Arabia,SA,SAU,Ash Sharqiyah
Pamplona,Pamplona,42.82000775,-1.649987428,233855.5,Spain,ES,ESP,Comunidad Foral de Navarra
Yanbu al Bahr,Yanbu al Bahr,24.09427736,38.0492948,233875.5,Saudi Arabia,SA,SAU,Al Madinah
Juliaca,Juliaca,-15.49999835,-70.13996708,234428,Peru,PE,PER,Callao
Santa Ana,Santa Ana,-13.7600012,-65.57996118,234478,Bolivia,BO,BOL,El Beni
Tacloban,Tacloban,11.25043601,125.0000081,234548,Philippines,PH,PHL,Leyte
Uberaba,Uberaba,-19.7799955,-47.9500037,234807,Brazil,BR,BRA,Minas Gerais
Ibb,Ibb,13.97585105,44.17088497,234837,Yemen,YE,YEM,Ibb
Santa Clara,Santa Clara,22.40001385,-79.9666541,234900,Cuba,CU,CUB,Villa Clara
Kediri,Kediri,-7.789616273,112.0000264,235143,Indonesia,ID,IDN,Jawa Timur
Al Jubayl,Al Jubayl,27.00464235,49.64600297,235237,Saudi Arabia,SA,SAU,Ash Sharqiyah
Daloa,Daloa,6.889978657,-6.450004518,235410,Ivory Coast,CI,CIV,Haut-Sassandra
Sapele,Sapele,5.890427265,5.680004434,235424,Nigeria,NG,NGA,Delta
Freiburg,Freiburg,48.00041506,7.869948281,235427.5,Germany,DE,DEU,Baden-Württemberg
Dzerzhinsk,Dzerzhinsk,56.25037661,43.46002397,235457.5,Russia,RU,RUS,Nizhegorod
Sahiwal,Sahiwal,30.67173118,73.11180579,235695,Pakistan,PK,PAK,Punjab
Dera Ghazi Khan,Dera Ghazi Khan,30.06039899,70.63505774,236093,Pakistan,PK,PAK,Punjab
Shimonoseki,Shimonoseki,33.96543194,130.9454333,236198.5,Japan,JP,JPN,Yamaguchi
Sambalpur,Sambalpur,21.47040651,83.97005774,236869.5,India,IN,IND,Orissa
Soc Trang,Soc Trang,9.603740661,105.9800321,236961,Vietnam,VN,VNM,Sóc Trang
Sylhet,Sylhet,24.90355613,91.87360632,237000,Bangladesh,BD,BGD,Sylhet
Tegal,Tegal,-6.869569073,109.1199955,237084,Indonesia,ID,IDN,Jawa Tengah
Winston-Salem,Winston-Salem,36.10543052,-80.25999536,237491.5,United States of America,US,USA,North Carolina
Manisa,Manisa,38.63039268,27.43996822,237700,Turkey,TR,TUR,Manisa
As Sib,As Sib,23.68024579,58.18253617,237816,Oman,OM,OMN,Muscat
Orizaba,Orizaba,18.85002382,-97.12999923,238340.5,Mexico,MX,MEX,Veracruz
Caruaru,Caruaru,-8.280025616,-35.98001083,238732.5,Brazil,BR,BRA,Pernambuco
Ensenada,Ensenada,31.86997845,-116.6199982,238751,Mexico,MX,MEX,Baja California
Paramaribo,Paramaribo,5.83503013,-55.16703089,238963,Suriname,SR,SUR,Paramaribo
Udon Thani,Udon Thani,17.4047632,102.7893225,239192,Thailand,TH,THA,Udon Thani
Santa Maria,Santa Maria,-29.68331867,-53.80000838,239211.5,Brazil,BR,BRA,Rio Grande do Sul
Tehuacan,Tehuacan,18.4503583,-97.37998397,239370.5,Mexico,MX,MEX,Puebla
Plymouth,Plymouth,50.38538576,-4.159989259,239436,United Kingdom,GB,GBR,Plymouth
Mirzapur,Mirzapur,25.145376,82.56998816,239754,India,IN,IND,Uttar Pradesh
Sincelejo,Sincelejo,9.290426452,-75.37995732,239787.5,Colombia,CO,COL,Sucre
Maseru,Maseru,-29.31667438,27.48327307,239839.5,Lesotho,LS,LSO,Maseru
Braunschweig,Braunschweig,52.24997479,10.5000203,239884.5,Germany,DE,DEU,Niedersachsen
Ternopil,Ternopil,49.53598024,25.5821488,240222,Ukraine,UA,UKR,Ternopil'
Raichur,Raichur,16.21036582,77.35500932,240601,India,IN,IND,Karnataka
Wonju,Wonju,37.35514752,127.9396219,240898,South Korea,KR,KOR,Gangwon-do
Limeira,Limeira,-22.54954222,-47.40001144,241071,Brazil,BR,BRA,São Paulo
Linchuan,Linchuan,27.97034568,116.3600187,241104,China,CN,CHN,Jiangxi
Fukui,Fukui,36.07041974,136.2200468,241288.5,Japan,JP,JPN,Fukui
Itajai,Itajai,-26.89961261,-48.68001083,241421,Brazil,BR,BRA,Santa Catarina
Hospet,Hospet,15.28039675,76.37501745,241926.5,India,IN,IND,Karnataka
